,fire_name,fire_size,fire_size_class,stat_cause_descr,latitude,longitude,state,disc_clean_date,cont_clean_date,discovery_month,disc_date_final,cont_date_final,putout_time,disc_date_pre,disc_pre_year,disc_pre_month,wstation_usaf,dstation_m,wstation_wban,wstation_byear,wstation_eyear,Vegetation,fire_mag,weather_file,Temp_pre_30,Temp_pre_15,Temp_pre_7,Temp_cont,Wind_pre_30,Wind_pre_15,Wind_pre_7,Wind_cont,Hum_pre_30,Hum_pre_15,Hum_pre_7,Hum_cont,Prec_pre_30,Prec_pre_15,Prec_pre_7,Prec_cont
2517,BLANK,7379,G,Lightning,45.18333333,-105.8833333,MT,9/24/1992,10/15/1992,Sep,9/24/1992 5:00,10/15/1992 15:00,21,8/25/1992,1992,Aug,726673,46975.02989,99999,1979,2020,9,100,726673-99999-1992.gz,17.42292994,16.7097561,16.72368421,13.86880734,2.896815287,2.587804878,2.689473684,3.49266055,42.32692308,40.90123457,42.26315789,44.33333333,7,0,0,0
2598,SCOTT,6080,G,Lightning,45.44166667,-115.9883333,ID,8/18/1992,8/29/1992,Aug,8/18/1992 15:20,8/29/1992 20:00,11,7/19/1992,1992,Jul,726873,56699.53409,99999,1990,1995,9,100,726873-99999-1992.gz,20.85886076,21.34651163,24.2625,15.30153846,2.153846154,2.038823529,1.7975,2.293846154,53.67096774,49.23809524,43.33333333,56.83076923,5,1,0,29
2609,PORCUPINE CREEK,13925,G,Lightning,45.51333333,-115.8166667,ID,8/18/1992,11/3/1992,Aug,8/18/1992 9:55,11/3/1992 8:00,77,7/19/1992,1992,Jul,726873,53377.96836,99999,1990,1995,15,100,726873-99999-1992.gz,20.85886076,21.34651163,24.2625,14.10223464,2.153846154,2.038823529,1.7975,2.337988827,53.67096774,49.23809524,43.33333333,55.27374302,5,1,0,35.5
2611,CROOKED CREEK,23654,G,Lightning,45.47833333,-115.635,ID,8/20/1992,11/3/1992,Aug,8/20/1992 6:45,11/3/1992 8:00,75,7/21/1992,1992,Jul,726873,64118.14165,99999,1990,1995,9,100,726873-99999-1992.gz,20.934375,21.6627907,24.18918919,13.40276243,2.109493671,1.987058824,1.837837838,2.353038674,53.50318471,50.0952381,45.27777778,55.47513812,9,5,4,31.5
2883,BEAVER,3150,F,Lightning,33.39166667,-108.225,NM,9/28/1992,12/24/1992,Sep,9/28/1992 14:30,12/24/1992 10:00,87,8/29/1992,1992,Aug,722720,84314.03941,93063,1941,2020,16,50,722720-93063-1992.gz,0,0,0,0,0,0,0,0,0,0,0,0,0,0,0,0
2915,CREEL,29000,G,Lightning,33.31666667,-108.4166667,NM,6/3/1992,8/29/1992,Jun,6/3/1992 9:00,8/29/1992 13:00,87,5/4/1992,1992,May,722721,79331.99205,93063,1978,2020,16,100,File Not Found,-1,-1,-1,-1,-1,-1,-1,-1,-1,-1,-1,-1,-1,-1,-1,-1
2917,GOBBLER,6000,G,Lightning,33.18333333,-108.5833333,NM,6/23/1992,8/29/1992,Jun,6/23/1992 13:00,8/29/1992 13:00,67,5/24/1992,1992,May,722720,72401.69183,93063,1941,2020,16,100,722720-93063-1992.gz,0,0,0,0,0,0,0,0,0,0,0,0,0,0,0,0
2918,CUB,4000,F,Lightning,33.36666667,-108.5666667,NM,6/24/1992,8/29/1992,Jun,6/24/1992 14:00,8/29/1992 12:00,66,5/25/1992,1992,May,722720,89529.69553,93063,1941,2020,16,50,722720-93063-1992.gz,0,0,0,0,0,0,0,0,0,0,0,0,0,0,0,0
3091,FOOTHILLS,177544,G,Lightning,43.48,-115.6883333,ID,8/19/1992,9/10/1992,Aug,8/19/1992 16:00,9/10/1992 18:00,22,7/20/1992,1992,Jul,726810,45713.99633,24131,1977,2010,9,100,726810-24131-1992.gz,25.42013889,26.00416667,28.11428571,19.11306818,3.738194444,3.715555556,3.810714286,4.012121212,32.70138889,31.76666667,33.03571429,33.7594697,0,0,0,2.9
3098,DUNNIGAN #2,12860,G,Arson,43.655,-115.9666667,ID,9/2/1992,9/12/1992,Sep,9/2/1992 16:30,9/12/1992 10:00,10,8/3/1992,1992,Aug,726810,24208.66849,24131,1977,2010,9,100,726810-24131-1992.gz,23.48430556,20.96333333,20.58690476,17.27541667,3.847638889,3.996388889,3.541666667,3.943333333,30.7375,30.40833333,25.64880952,37.90833333,0,0,0,2.9
3100,GROUSE CREEK,4130,F,Lightning,43.56666667,-115.9266667,ID,6/11/1992,6/13/1992,Jun,6/11/1992 20:00,6/13/1992 16:00,2,5/12/1992,1992,May,726810,25394.1889,24131,1977,2010,9,50,726810-24131-1992.gz,20.44097222,21.50444444,22.24285714,24.77083333,4.232638889,4.409722222,4.1625,6.385416667,31.92638889,29.99444444,26.67857143,33.47916667,0,0,0,0
3109,COUNTY LINE,8310,G,Lightning,44.40333333,-115.325,ID,7/31/1992,8/10/1992,Jul,7/31/1992 16:00,8/10/1992 18:00,10,7/1/1992,1992,Jul,725788,81372.0479,99999,1983,2005,15,100,725788-99999-1992.gz,14.9092425,16.78494318,16.94827586,18.51929078,1.019359465,0.986432638,0.856504065,1.261505682,58.98981077,53.70884872,52.08163265,43.64914773,0,0,0,0
3195,COFFEE POT,38200,G,Lightning,41.81666667,-115.6666667,NV,8/2/1992,8/11/1992,Aug,8/2/1992 18:01,8/11/1992 18:00,9,7/3/1992,1992,Jul,725827,22969.20898,94190,1973,2000,15,100,725827-99999-1992.gz,18.85396825,20.47192982,21.235,21.25277778,4.249206349,4.41754386,3.935,4.930555556,23.23015873,18.38596491,13.3,14.68571429,0,0,0,0
3197,CALIFORNIA CREEK,3600,F,Equipment Use,41.45,-115.9333333,NV,8/4/1992,8/5/1992,Aug,8/4/1992 11:51,8/5/1992 9:00,1,7/5/1992,1992,Jul,725827,23423.87458,94190,1973,2000,15,50,725827-99999-1992.gz,19.42136752,20.70925926,23.63333333,17.85,4.481196581,4.616666667,5.366666667,3.95,22.06837607,17.57407407,10.2,12.25,0,0,0,0
3206,CANYON,7180,G,Arson,41.75,-117.6,NV,8/2/1992,8/5/1992,Aug,8/2/1992 14:01,8/5/1992 18:00,3,7/3/1992,1992,Jul,726875,95436.09162,99999,1981,1997,15,100,File Not Found,-1,-1,-1,-1,-1,-1,-1,-1,-1,-1,-1,-1,-1,-1,-1,-1
3216,WINDY RIDGE,17500,G,Lightning,45.01333333,-116.81,ID,8/19/1992,8/25/1992,Aug,8/19/1992 20:25,8/25/1992 18:00,6,7/20/1992,1992,Jul,725788,57873.25696,99999,1983,2005,9,100,725788-99999-1992.gz,18.05493388,18.91499449,20.77594203,11.89444444,1.063914373,1.189048673,0.861627907,1.933986928,48.43134252,42.4170354,43.03197674,49.3627451,0,0,0,0
3227,WARM SPRINGS,6500,G,Lightning,45.24666667,-116.1783333,ID,8/20/1992,9/7/1992,Aug,8/20/1992 8:01,9/7/1992 18:00,18,7/21/1992,1992,Jul,725788,40883.53993,99999,1983,2005,9,100,725788-99999-1992.gz,18.11346357,18.87084827,20.79854015,10.36969697,1.033544974,1.154556355,0.893406593,1.645858586,48.04981452,43.20863309,45.16849817,45.89494949,0,0,0,0
3257,HORSEFLY,3340,F,Lightning,45.36666667,-114.3,ID,8/1/1992,8/13/1992,Aug,8/1/1992 15:25,8/13/1992 8:00,12,7/2/1992,1992,Jul,726865,42916.58498,99999,1973,2020,9,50,726865-99999-1992.gz,16.75538462,18.20309859,19.30297619,20.68159722,1.391725105,1.284225352,1.225595238,1.614930556,56.01262272,52.78591549,45.36309524,38.11805556,0,0,0,0
3271,TRAPPER,9500,G,Lightning,42.12138889,-114.1755556,ID,8/21/1992,8/26/1992,Aug,8/21/1992 9:00,8/26/1992 18:00,5,7/22/1992,1992,Jul,725866,47498.38271,99999,1973,2005,9,100,725866-99999-1992.gz,26.38886256,26.4430622,27.0989011,17.89736842,4.77547619,4.652403846,4.92967033,5.958666667,34.18095238,34.66826923,32.51648352,28.50666667,0,0,0,0
3407,CLEVELAND,24580,G,Miscellaneous,38.775,-120.45,CA,9/29/1992,10/12/1992,Sep,9/29/1992 12:40,10/12/1992 18:00,13,8/30/1992,1992,Aug,725847,40873.42637,99999,1977,2020,0,100,725847-99999-1992.gz,18.05185185,18.19081081,18.37816092,15.286875,3.734391534,3.729189189,3.735632184,3.481012658,37.39864865,32.65625,30.95402299,38.31210191,0,0,0,0
3415,RAINBOW,8800,G,Lightning,37.55,-119.095,CA,8/20/1992,9/16/1992,Aug,8/20/1992 14:30,9/16/1992 17:00,27,7/21/1992,1992,Jul,723894,23517.11748,3181,1973,2020,0,100,723894-99999-1992.gz,23.23193277,22.79741379,22.04807692,18.26358025,4.231914894,3.496521739,3.034615385,4.52173913,24.46781116,29.8245614,37.21568627,22.0621118,0,0,0,0
3671,BARKER,5050,G,Arson,40.60166667,-123.0983333,CA,8/20/1992,8/28/1992,Aug,8/20/1992 16:30,8/28/1992 18:00,8,7/21/1992,1992,Jul,725915,68331.77421,24257,1977,1997,15,100,File Not Found,-1,-1,-1,-1,-1,-1,-1,-1,-1,-1,-1,-1,-1,-1,-1,-1
3682,FOUNTAIN,64000,G,Arson,40.76166667,-121.98,CA,8/20/1992,8/30/1992,Aug,8/20/1992 12:50,8/30/1992 18:00,10,7/21/1992,1992,Jul,725915,38214.24333,24257,1977,1997,15,100,File Not Found,-1,-1,-1,-1,-1,-1,-1,-1,-1,-1,-1,-1,-1,-1,-1,-1
3739,RUBY,3460,F,Smoking,38.125,-120.24,CA,9/7/1992,9/9/1992,Sep,9/7/1992 12:01,9/9/1992 23:59,2,8/8/1992,1992,Aug,999999,54834.51992,53150,1948,2005,0,50,999999-11641-1992.gz,27.97472222,28.06694444,28.04464286,27.13958333,4.308611111,4.511944444,4.751785714,2.704166667,78.24478442,78.25069638,80.77245509,85.17021277,0,0,0,0
3743,GULCH,18000,G,Miscellaneous,38.16833333,-120.6066667,CA,8/16/1992,8/25/1992,Aug,8/16/1992 17:05,8/25/1992 18:00,9,7/17/1992,1992,Jul,724920,62594.60405,23237,1973,2020,0,100,724920-23237-1992.gz,25.31611111,26.2125,27.98095238,26.54398148,4.16456241,3.87277937,3.573619632,3.691469194,44.25179856,40.55043228,38.98159509,35.36190476,0,0,0,0
3813,ROBINSON SPRING,10706,G,Lightning,42.26,-120.9683333,OR,9/15/1992,9/22/1992,Sep,9/15/1992 13:00,9/22/1992 18:00,7,8/16/1992,1992,Aug,725976,48052.53183,99999,1983,2005,9,100,725976-99999-1992.gz,15.00195531,13.08300836,13.04730539,14.32322581,3.511452514,3.504456825,3.380239521,3.345806452,37.1801676,42.5264624,38.16167665,34.0516129,0,0,0,0
3817,FORT SPRING,3206,F,Miscellaneous,42.01333333,-120.9283333,OR,8/19/1992,8/23/1992,Aug,8/19/1992 14:07,8/23/1992 18:00,4,7/20/1992,1992,Jul,725976,46925.19109,99999,1983,2005,9,50,725976-99999-1992.gz,20.95828125,21.74698413,22.55060241,17.47395833,3.27125,3.148571429,2.974096386,3.828125,32.23125,34.1015873,39.84939759,32.96875,0,0,0,0
4036,LONE PINE,30809,G,Children,42.595,-121.6733333,OR,8/2/1992,8/9/1992,Aug,8/2/1992 13:50,8/9/1992 18:00,7,7/3/1992,1992,Jul,725895,49938.74143,94236,1973,2020,4,100,725895-94236-1992.gz,20.19080622,21.20623229,23.66586826,20.1430303,3.262376238,3.2101983,2.769461078,3.236969697,55.44130127,51.74787535,45.59281437,53.2,8.5,0.5,0,0
4226,POST OFFICE BAY,7400,G,Arson,30.06,-85.01,FL,5/25/1992,5/31/1992,May,5/25/1992 15:00,5/31/1992 18:00,6,4/25/1992,1992,Apr,722240,54184.81167,99999,1942,2020,12,100,File Not Found,-1,-1,-1,-1,-1,-1,-1,-1,-1,-1,-1,-1,-1,-1,-1,-1
4609,GREAT LAKE,3400,F,Arson,34.83333333,-77.08333333,NC,5/16/1992,5/17/1992,May,5/16/1992 12:40,5/17/1992 13:00,1,4/16/1992,1992,Apr,698324,17302.37713,99999,1990,1996,16,50,File Not Found,-1,-1,-1,-1,-1,-1,-1,-1,-1,-1,-1,-1,-1,-1,-1,-1
5077,HAYSTACK,24400,G,Smoking,45.66527778,-121.9344444,WA,8/3/1992,8/4/1992,Aug,8/3/1992 14:03,8/4/1992 6:00,1,7/4/1992,1992,Jul,726987,4466.206799,94204,1936,2020,15,100,726987-99999-1992.gz,21.6648855,21.796875,25.00357143,22.65,4.188549618,4.3953125,4.078571429,4.833333333,60.00763359,60.1875,47.82142857,53.16666667,0,0,0,0
5519,WHITERIVER,5969.6,G,Equipment Use,43.35,-102.7838,SD,9/26/1992,9/29/1992,Sep,9/26/1992 11:30,9/29/1992 12:00,3,8/27/1992,1992,Aug,726517,42460.17119,94039,1985,2004,9,100,File Not Found,-1,-1,-1,-1,-1,-1,-1,-1,-1,-1,-1,-1,-1,-1,-1,-1
5536,PIYAWICONI,3500,F,Children,43.3667,-102.3338,SD,10/25/1992,10/25/1992,Oct,10/25/1992 14:00,10/25/1992 20:00,0,9/25/1992,1992,Sep,726517,41221.35712,94039,1985,2004,9,50,File Not Found,-1,-1,-1,-1,-1,-1,-1,-1,-1,-1,-1,-1,-1,-1,-1,-1
5806,WHITMORE,6985,G,Lightning,48.1282,-119.2461,WA,6/25/1992,6/28/1992,Jun,6/25/1992 19:00,6/28/1992 12:00,3,5/26/1992,1992,May,727890,42405.83938,94197,1988,2020,15,100,File Not Found,-1,-1,-1,-1,-1,-1,-1,-1,-1,-1,-1,-1,-1,-1,-1,-1
5807,BOOT MTN,4940,F,Lightning,48.2149,-119.3111,WA,6/25/1992,6/28/1992,Jun,6/25/1992 19:00,6/28/1992 12:00,3,5/26/1992,1992,May,727890,31626.56761,94197,1988,2020,15,50,File Not Found,-1,-1,-1,-1,-1,-1,-1,-1,-1,-1,-1,-1,-1,-1,-1,-1
5808,RATTLESNAK,3250,F,Lightning,48.2449,-119.2678,WA,6/25/1992,6/28/1992,Jun,6/25/1992 19:00,6/28/1992 12:00,3,5/26/1992,1992,May,727890,30572.35039,94197,1988,2020,15,50,File Not Found,-1,-1,-1,-1,-1,-1,-1,-1,-1,-1,-1,-1,-1,-1,-1,-1
5967,RDOORECMPX,4000,F,Smoking,48.55,-112.9509,MT,4/2/1992,4/2/1992,Apr,4/2/1992 10:20,4/2/1992 23:59,0,3/3/1992,1992,Mar,727690,42902.38494,24137,1979,2005,16,50,File Not Found,-1,-1,-1,-1,-1,-1,-1,-1,-1,-1,-1,-1,-1,-1,-1,-1
7124,213225,48087,G,Miscellaneous,62.6497,-141.1855,AK,6/11/1992,9/1/1992,Jun,6/11/1992 14:51,9/1/1992 8:00,82,5/12/1992,1992,May,702915,143348.5062,26486,1945,2005,0,100,702915-99999-1992.gz,8.723988439,11.68193548,12.22424242,14.78242812,3.407225434,3.436774194,3.395454545,3.313141026,62.07964602,55.20645161,46.74242424,58.82903226,0,0,0,0
7133,232266,3390,F,Lightning,66.5161,-155.736,AK,6/19/1992,7/21/1992,Jun,6/19/1992 15:55,7/21/1992 16:18,32,5/20/1992,1992,May,702225,95587.24138,99999,1942,2005,0,50,File Not Found,-1,-1,-1,-1,-1,-1,-1,-1,-1,-1,-1,-1,-1,-1,-1,-1
7137,BTT 3 48,25600,G,Lightning,66.1828,-152.386,AK,6/23/1992,8/28/1992,Jun,6/23/1992 15:44,8/28/1992 15:45,66,5/24/1992,1992,May,701730,62844.33873,26535,1980,2005,0,100,701730-99999-1992.gz,12.35904762,13.72608696,13.72608696,14.5224,2.243809524,2.417391304,2.417391304,2.465825688,65.01923077,70.36231884,70.36231884,68.89734717,0,0,0,0
7139,CEMWNW73,3130,F,Lightning,65.9163,-147.6692,AK,6/29/1992,9/17/1992,Jun,6/29/1992 16:27,9/17/1992 9:03,80,5/30/1992,1992,May,702615,120255.9417,26498,1978,2005,0,50,702615-99999-1992.gz,15.62033493,14.53191489,14.43217391,18.24521912,1.925119617,1.821702128,1.796521739,1.361354582,62.28710462,70.03043478,69.45045045,65.14343434,22.8,22.8,13,25
7145,CEM NW 42,4530,F,Lightning,65.7163,-146.5025,AK,7/2/1992,8/20/1992,Jul,7/2/1992 9:49,8/20/1992 17:50,49,6/2/1992,1992,Jun,701970,88548.12682,99999,1973,2020,0,50,File Not Found,-1,-1,-1,-1,-1,-1,-1,-1,-1,-1,-1,-1,-1,-1,-1,-1
7146,CEM NW 45,4570,F,Lightning,65.7329,-146.6358,AK,7/2/1992,9/17/1992,Jul,7/2/1992 15:26,9/17/1992 9:10,77,6/2/1992,1992,Jun,701970,94939.27389,99999,1973,2020,0,50,File Not Found,-1,-1,-1,-1,-1,-1,-1,-1,-1,-1,-1,-1,-1,-1,-1,-1
7168,232414,35090,G,Lightning,67.3997,-144.636,AK,7/19/1992,9/17/1992,Jul,7/19/1992 20:15,9/17/1992 10:05,60,6/19/1992,1992,Jun,701945,89149.84427,99999,1973,1996,0,100,File Not Found,-1,-1,-1,-1,-1,-1,-1,-1,-1,-1,-1,-1,-1,-1,-1,-1
7285,MOCCASIN,8000,G,Campfire,37.8166,-120.3344,CA,8/1/1992,8/7/1992,Aug,8/1/1992 12:30,8/7/1992 16:00,6,7/2/1992,1992,Jul,999999,45672.41599,53150,1948,2005,0,100,999999-11641-1992.gz,27.73888889,27.65555556,27.86964286,27.41388889,4.888333333,4.805277778,4.64047619,4.147916667,79.30167598,78.68333333,77.23214286,80.09722222,0,0,0,0
7303,MID0RIDGE,7530,G,Equipment Use,35.0833,-118.7509,CA,8/22/1992,8/31/1992,Aug,8/22/1992 16:21,8/31/1992 18:13,9,7/23/1992,1992,Jul,749171,29007.62725,99999,1943,1993,15,100,File Not Found,-1,-1,-1,-1,-1,-1,-1,-1,-1,-1,-1,-1,-1,-1,-1,-1
7312,MESA,4200,F,Equipment Use,33.95,-115.2008,CA,4/30/1992,5/2/1992,Apr,4/30/1992 16:25,5/2/1992 18:00,2,3/31/1992,1992,Mar,691414,78367.27639,99999,1991,2003,16,50,File Not Found,-1,-1,-1,-1,-1,-1,-1,-1,-1,-1,-1,-1,-1,-1,-1,-1
7487,PRESLEY,9507,G,Lightning,44.29857,-116.78051,ID,6/28/1992,6/29/1992,Jun,6/28/1992 4:55,6/29/1992 22:00,1,5/29/1992,1992,May,726837,36015.18136,24162,1973,2020,15,100,726837-24162-1992.gz,0,0,0,0,0,0,0,0,0,0,0,0,0,0,0,0
7522,INDIAN 2,20000,G,Lightning,43.4499,-115.8843,ID,8/19/1992,8/29/1992,Aug,8/19/1992 15:58,8/29/1992 18:00,10,7/20/1992,1992,Jul,726810,31642.95948,24131,1977,2010,9,100,726810-24131-1992.gz,25.42013889,26.00416667,28.11428571,20.04375,3.738194444,3.715555556,3.810714286,4.23,32.70138889,31.76666667,33.03571429,30.49166667,0,0,0,0
7525,WELL FIELD,12677,G,Lightning,42.2999,-115.4342,ID,8/19/1992,8/23/1992,Aug,8/19/1992 18:36,8/23/1992 10:00,4,7/20/1992,1992,Jul,725827,79763.25672,94190,1973,2000,9,100,725827-99999-1992.gz,20.68508772,20.66333333,21.27307692,21.9,4.345614035,4.101666667,3.503846154,5.433333333,20.9380531,24.01694915,34.84615385,18.83333333,0,0,0,0
7569,MEADOWSDIV,12265,G,Lightning,42.1999,-112.7841,ID,8/2/1992,8/8/1992,Aug,8/2/1992 21:00,8/8/1992 18:00,6,7/3/1992,1992,Jul,725786,40406.02566,99999,1943,2020,9,100,725786-24151-1992.gz,24.11440678,25.70194175,26.38653846,25.78333333,2.300847458,2.323300971,2.355769231,1.908333333,33.91489362,29.76470588,26.1372549,34.77083333,0,0,0,0
7572,COWHOLLOW2,7000,G,Lightning,42.1333,-112.8675,ID,8/3/1992,8/9/1992,Aug,8/3/1992 14:24,8/9/1992 19:00,6,7/4/1992,1992,Jul,725869,43450.49352,99999,1973,2005,9,100,725869-94186-1992.gz,20.34074074,20.55846154,21.13478261,23.72413793,3.854205607,3.8453125,3.839130435,3.1,55.90654206,55.328125,51.69565217,52.48275862,0,0,0,0
7614,SAGEHEN,39562,G,Lightning,43.0666,-112.1175,ID,8/3/1992,8/7/1992,Aug,8/3/1992 12:52,8/7/1992 20:00,4,7/4/1992,1992,Jul,725868,65030.41989,99999,1973,2005,9,100,725868-99999-1992.gz,20.8511236,22.08636364,24.11904762,25.24,5.491573034,5.475,5.25,5.255,37.1920904,35.74712644,27.68292683,28.7,0,0,0,0
7620,PILLAR BT,5415,G,Miscellaneous,42.9499,-113.1842,ID,8/8/1992,8/10/1992,Aug,8/8/1992 15:48,8/10/1992 21:30,2,7/9/1992,1992,Jul,725869,70987.36507,99999,1973,2005,4,100,725869-94186-1992.gz,20.87479675,21.9016129,23.28148148,23.35,3.610655738,3.588709677,3.233333333,3.83,55.63114754,53.01612903,52.96296296,54.6,0,0,0,0
7630,MOSBY BT,7080,G,Lightning,43.0499,-113.1842,ID,9/3/1992,9/4/1992,Sep,9/3/1992 15:56,9/4/1992 8:00,1,8/4/1992,1992,Aug,725869,81957.83049,99999,1973,2005,9,100,725869-94186-1992.gz,19.72,15.88363636,16.74210526,15.9,3.023333333,3.14,2.557894737,2.4,57.43333333,62.07272727,66.52631579,68,0,0,0,0
7689,BLACKRIDGE,149250,G,Lightning,43.0666,-113.9009,ID,8/2/1992,8/6/1992,Aug,8/2/1992 21:56,8/6/1992 20:00,4,7/3/1992,1992,Jul,725865,58031.99939,94161,1973,1999,9,100,725865-99999-1992.gz,20.87352342,22.22267206,24.22920354,25.721875,3.557433809,3.518218623,3.461946903,4.778125,34.65510204,32.48780488,27.49557522,25.90625,0,0,0,0
7691,RO,25039,G,Lightning,43.4499,-114.4175,ID,8/2/1992,8/6/1992,Aug,8/2/1992 23:08,8/6/1992 22:00,4,7/3/1992,1992,Jul,725865,11016.5566,99999,1973,2007,9,100,725865-99999-1992.gz,20.87352342,22.22267206,24.22920354,25.721875,3.557433809,3.518218623,3.461946903,4.778125,34.65510204,32.48780488,27.49557522,25.90625,0,0,0,0
7695,GREAT RIFT,9819,G,Lightning,43.1332,-113.5842,ID,8/3/1992,8/6/1992,Aug,8/3/1992 8:43,8/6/1992 18:00,3,7/4/1992,1992,Jul,725865,70938.71189,94161,1973,1999,9,100,725865-99999-1992.gz,21.18696538,22.46064257,25.06434783,25.17234043,3.610794297,3.592771084,3.700869565,4.878723404,33.96122449,31.91532258,26.10434783,26.87234043,0,0,0,0
7696,POTTER BTE,19225,G,Lightning,43.2332,-113.5675,ID,8/3/1992,8/7/1992,Aug,8/3/1992 8:43,8/7/1992 18:00,4,7/4/1992,1992,Jul,725865,66360.04389,99999,1973,2007,9,100,725865-99999-1992.gz,21.18696538,22.46064257,25.06434783,24.64923077,3.610794297,3.592771084,3.700869565,4.564615385,33.96122449,31.91532258,26.10434783,26.09230769,0,0,0,0
7811,DIXIE CRK,13202,G,Lightning,40.6499,-115.9842,NV,8/2/1992,8/6/1992,Aug,8/2/1992 14:38,8/6/1992 22:00,4,7/3/1992,1992,Jul,725825,25834.27199,24121,1942,2020,15,100,725825-24121-1992.gz,20.42527778,21.77166667,23.0125,22.74166667,2.518611111,2.431666667,2.029166667,2.782291667,29.78303199,26.42618384,23.11976048,29.75,0,0,0,0
7812,IDAHO LINE,5500,G,Lightning,41.9832,-114.2175,NV,8/2/1992,8/7/1992,Aug,8/2/1992 16:17,8/7/1992 18:00,5,7/3/1992,1992,Jul,725866,59686.02198,99999,1973,2005,15,100,725866-99999-1992.gz,24.06823266,25.74977376,28.03009709,27.11875,5.071524664,5.035454545,4.77254902,4.971875,32.71460674,32.05,29.7745098,40.578125,0,0,0,0
7891,HAYMEADOW,12000,G,Equipment Use,32.4001,-105.8005,NM,10/1/1992,10/4/1992,Oct,10/1/1992 12:00,10/4/1992 18:00,3,9/1/1992,1992,Sep,722693,51956.86399,93097,1980,1998,12,100,722693-99999-1992.gz,0,0,0,0,0,0,0,0,0,0,0,0,0,0,0,0
7965,ALVORD,7139,G,Debris Burning,42.5832,-118.5344,OR,6/28/1992,6/29/1992,Jun,6/28/1992 14:04,6/29/1992 18:00,1,5/29/1992,1992,May,726875,53473.35067,99999,1981,1997,4,100,File Not Found,-1,-1,-1,-1,-1,-1,-1,-1,-1,-1,-1,-1,-1,-1,-1,-1
7999,EAST EVANS,10135,G,Equipment Use,42.4998,-123.1845,OR,8/3/1992,8/12/1992,Aug,8/3/1992 14:45,8/12/1992 19:00,9,7/4/1992,1992,Jul,725970,28900.3736,24225,1977,2020,9,100,725970-24225-1992.gz,23.37125,24.40166667,26.62261905,23.50787037,2.555555556,2.682777778,2.513095238,2.565740741,52.70194986,47.98888889,38.38095238,44.5462963,181.8,84,0,0
8015,CHICKEN SP,9980,G,Lightning,45.0832,-121.0345,OR,7/18/1992,7/24/1992,Jul,7/18/1992 16:29,7/24/1992 23:00,6,6/18/1992,1992,Jun,726988,60433.10942,24219,1948,2005,9,100,726988-24219-1992.gz,25.50577689,24.55912698,26.83706897,26.61010101,5.5644,5.458,4.756896552,6.874747475,45,43.288,37.31896552,41.70707071,0,0,0,0
8134,RATTLESNAK,17627.8,G,Debris Burning,46.4165,-120.1178,WA,6/9/1992,6/10/1992,Jun,6/9/1992 12:10,6/10/1992 17:00,1,5/10/1992,1992,May,727813,37952.72104,99999,1973,2020,9,100,File Not Found,-1,-1,-1,-1,-1,-1,-1,-1,-1,-1,-1,-1,-1,-1,-1,-1
8371,NAPAU,4700,F,Miscellaneous,19.3833,-155.1333,HI,2/17/1992,5/26/1992,Feb,2/17/1992 22:00,5/26/1992 16:00,99,1/18/1992,1992,Jan,912890,15833.26012,99999,1973,1996,12,50,File Not Found,-1,-1,-1,-1,-1,-1,-1,-1,-1,-1,-1,-1,-1,-1,-1,-1
8643,CRAIN,3500,F,Miscellaneous,29.85,-93.75,LA,8/31/1992,9/1/1992,Aug,8/31/1992 9:30,9/1/1992 9:00,1,8/1/1992,1992,Aug,994260,35213.56893,99999,1943,2020,12,50,994260-99999-1992.gz,26.2943314,25.43649425,26.32098765,26.63913043,3.988372093,4.336494253,4.604938272,5.095652174,0,0,0,0,0,0,0,0
8648,SOUTHLINE,11210,G,Debris Burning,29.835,-93.5,LA,10/14/1992,10/16/1992,Oct,10/14/1992 14:45,10/16/1992 8:00,2,9/14/1992,1992,Sep,722293,20143.57409,99999,1991,1996,12,100,722293-99999-1992.gz,23.30549451,21.77555556,22.03478261,24.96666667,4.038461538,4.257777778,4.556521739,4.833333333,76.09756098,69.2,71.76190476,78.16666667,0,0,0,0
8768,STARLAKE2,9000,G,Miscellaneous,29.63333333,-94.16666667,TX,9/21/1992,9/22/1992,Sep,9/21/1992 14:00,9/22/1992 16:00,1,8/22/1992,1992,Aug,994510,11896.48285,99999,1988,2020,12,100,File Not Found,-1,-1,-1,-1,-1,-1,-1,-1,-1,-1,-1,-1,-1,-1,-1,-1
8777,365,4000,F,Miscellaneous,46.3875,-119.4541,WA,9/12/1992,9/13/1992,Sep,9/12/1992 15:57,9/13/1992 0:52,1,8/13/1992,1992,Aug,727840,22883.88427,99999,1981,1998,9,50,727840-99999-1992.gz,23.24521127,21.12591549,18.32048193,18.92916667,3.738309859,3.945915493,3.904819277,7.379166667,36.33145275,36.32394366,38.25903614,32.91666667,19.9,0,0,0
9202,,5200,G,Arson,47.70048287,-92.33662195,MN,5/10/1992,,May,,,,4/10/1992,1992,Apr,726549,29671.95511,54905,1948,2020,15,100,File Not Found,-1,-1,-1,-1,-1,-1,-1,-1,-1,-1,-1,-1,-1,-1,-1,-1
9820,POWER PLANT,4832,F,Arson,39.82917,-74.25417,NJ,5/3/1992,,May,,,,4/3/1992,1992,Apr,724090,24068.74418,14780,1973,2011,0,50,724090-14780-1992.gz,12.50902778,15.00151515,11.55357143,16.79172932,3.333333333,3.321212121,2.267857143,3.757142857,48.90909091,62.6,61.17857143,53.12121212,0,0,0,0
9855,FORKED RIVER MOUTAIN APR,5284,G,Miscellaneous,39.84167,-74.3,NJ,6/13/1992,,Jun,,,,5/14/1992,1992,May,724090,21669.6143,14780,1973,2011,0,100,724090-14780-1992.gz,20.49673203,22.56419753,25.55294118,25.30769231,3.144444444,2.980246914,2.761764706,3.824647887,51.76470588,56.40740741,48.73529412,52.40140845,0,0,0,0
19378,LITTLE MTN.,3040,F,Missing/Undefined,41.71755,-112.22973,UT,7/20/1992,,Jul,,,,6/20/1992,1992,Jun,724796,32409.38334,99999,1990,2005,15,50,724796-99999-1992.gz,23.06363636,28.85,0,23,4.478787879,6.316666667,0,1.66,45.63333333,27.16666667,0,39.3,0,0,0,0
19387,PIONEER,4600,F,Missing/Undefined,40.84525,-111.52287,UT,7/23/1992,,Jul,,,,6/23/1992,1992,Jun,725755,48039.9284,99999,1973,2010,15,50,725755-24101-1992.gz,22.07069444,22.44388889,23.94404762,26.32541667,3.464166667,3.236111111,3.491666667,3.246388889,37.05138889,36.61666667,29.53571429,27.62916667,57,29,0,0
19400,DESERET/SPRING CANYON,4160,F,Missing/Undefined,41.28388,-111.23793,UT,8/1/1992,,Aug,,,,7/2/1992,1992,Jul,725775,17378.67407,4111,1973,2020,15,50,725775-04111-1992.gz,17.95728155,19.55818182,20.63333333,17.66057692,5.291262136,4.996363636,5.305555556,4.441747573,41.66990291,34.72727273,26.72222222,36.88349515,0,0,0,0
19442,BUTCH MILLS N PROMONTORY,3520,F,Missing/Undefined,41.68321,-112.59901,UT,8/21/1992,,Aug,,,,7/22/1992,1992,Jul,725786,59287.77847,99999,1943,2020,15,50,725786-24151-1992.gz,26.39951456,27.03904762,24.32093023,19.02687225,2.110679612,2.157142857,1.909302326,2.372246696,30.9804878,33.63809524,41.6744186,35.00444444,0,0,0,0
19469,POLE CANYON,3200,F,Missing/Undefined,40.32688,-112.1298,UT,9/13/1992,,Sep,,,,8/14/1992,1992,Aug,725724,36614.46891,99999,1973,1996,14,50,725724-99999-1992.gz,19.03485064,17.18583333,17.28154762,14.98389831,2.896857143,2.597771588,2.813690476,2.779545455,45.03857143,49.44846797,44.55952381,45.59659091,0,0,0,0
19905,,4000,F,Missing/Undefined,44.62905882,-106.614998,WY,9/24/1992,,Sep,,,,8/25/1992,1992,Aug,726654,28824.92672,94054,1973,2005,15,50,File Not Found,-1,-1,-1,-1,-1,-1,-1,-1,-1,-1,-1,-1,-1,-1,-1,-1
29629,LA PALOMA                ,4800,F,Miscellaneous,37.42611111,-120.3669444,CA,8/7/1992,,Aug,,,,7/8/1992,1992,Jul,724810,18347.35923,23203,1973,2012,0,50,724810-23203-1992.gz,26.48,26.54611111,26.16190476,26.01277778,2.700972222,2.796944444,2.743452381,2.458333333,44.54027778,38.89444444,36.36904762,43.52294854,9,0,0,0
30555,BURTONS                  ,6140,G,Equipment Use,39.705,-121.7211111,CA,9/25/1992,,Sep,,,,8/26/1992,1992,Aug,724973,15273.17491,93203,1973,1999,0,100,724973-99999-1992.gz,0,0,0,0,0,0,0,0,0,0,0,0,0,0,0,0
30608,VILLA                    ,6700,G,Equipment Use,39.42888888,-121.6588889,CA,9/25/1992,,Sep,,,,8/26/1992,1992,Aug,745048,7643.124308,93210,1985,1996,0,100,File Not Found,-1,-1,-1,-1,-1,-1,-1,-1,-1,-1,-1,-1,-1,-1,-1,-1
36479,HERMOSA FIRE,3734,F,Miscellaneous,43.847145,-103.248325,SD,10/13/1992,,Oct,,,,9/13/1992,1992,Sep,726517,109182.3396,94039,1985,2004,9,50,File Not Found,-1,-1,-1,-1,-1,-1,-1,-1,-1,-1,-1,-1,-1,-1,-1,-1
36480,NEW UNDERWOOD FIRE,33000,G,Miscellaneous,44.038399,-103.030088,SD,10/22/1992,,Oct,,,,9/22/1992,1992,Sep,726517,120376.9061,94039,1985,2004,15,100,File Not Found,-1,-1,-1,-1,-1,-1,-1,-1,-1,-1,-1,-1,-1,-1,-1,-1
36482,FRONTIER,8000,G,Missing/Undefined,34.993801,-104.466385,NM,3/19/1992,,Mar,,,,2/18/1992,1992,Feb,722018,86117.11452,99999,1973,2020,16,100,File Not Found,-1,-1,-1,-1,-1,-1,-1,-1,-1,-1,-1,-1,-1,-1,-1,-1
36484,AUGUSTINE,8900,G,Missing/Undefined,33.259216,-103.552147,NM,3/8/1992,,Mar,,,,2/7/1992,1992,Feb,999999,59966.68706,53015,1945,2019,16,100,999999-11641-1992.gz,25.47208333,25.22888889,25.28869048,25.9825,4.41,4.281944444,3.993452381,3.529305556,77.36805556,79.27222222,80.47619048,76.28650904,0,0,0,0
36816,PIETY,4800,F,Lightning,32.39666667,-110.5716667,AZ,6/15/1993,6/19/1993,Jun,6/15/1993 14:30,6/19/1993 18:00,4,5/16/1993,1993,May,722745,38843.08348,23109,1954,2020,12,50,722745-23109-1993.gz,26.63216292,26.86197183,27.93095238,31.98631579,3.665449438,3.732957746,3.383928571,4.664210526,25.42275281,18.44225352,16.54166667,16.46315789,3.8,0,0,0
36839,BELL,13820,G,Lightning,33.41666667,-108.1666667,NM,5/21/1993,8/20/1993,May,5/21/1993 13:45,8/20/1993 8:00,91,4/21/1993,1993,Apr,722710,86012.0612,93045,1987,2005,16,100,722710-93045-1993.gz,19.53196069,19.85570093,21.01182365,24.03380216,4.03988764,3.948878505,3.698797595,4.09718706,24.85393258,28.68971963,35.45891784,22.16174402,0,0,0,0
36841,STONE,14700,G,Lightning,33.66666667,-107.7833333,NM,5/21/1993,8/20/1993,May,5/21/1993 15:11,8/20/1993 8:00,91,4/21/1993,1993,Apr,722710,67576.80935,93045,1987,2005,16,100,722710-93045-1993.gz,19.53196069,19.85570093,21.01182365,24.03380216,4.03988764,3.948878505,3.698797595,4.09718706,24.85393258,28.68971963,35.45891784,22.16174402,0,0,0,0
36844,BLACKHAWK,4200,F,Lightning,33.31666667,-107.8016667,NM,5/28/1993,8/20/1993,May,5/28/1993 11:00,8/20/1993 8:00,84,4/28/1993,1993,Apr,722710,50495.53077,93045,1987,2005,16,50,722710-93045-1993.gz,20.23446009,21.66954887,22.46417004,25.06993922,3.941502347,3.564379699,3.456275304,4.136325386,27.4657277,31.86654135,28.36032389,21.7143525,0,0,0,0
36868,BRUSH,32000,G,Lightning,33.08333333,-108.5,NM,5/14/1993,7/31/1993,May,5/14/1993 9:45,7/31/1993 15:00,78,4/14/1993,1993,Apr,722720,58871.21663,93063,1941,2020,16,100,File Not Found,-1,-1,-1,-1,-1,-1,-1,-1,-1,-1,-1,-1,-1,-1,-1,-1
36873,CLEAR,3200,F,Lightning,33.355,-108.4133333,NM,5/21/1993,7/14/1993,May,5/21/1993 10:28,7/14/1993 11:00,54,4/21/1993,1993,Apr,722721,83316.75773,93063,1978,2020,16,50,File Not Found,-1,-1,-1,-1,-1,-1,-1,-1,-1,-1,-1,-1,-1,-1,-1,-1
36874,STRAW,11000,G,Lightning,33.25166667,-108.38,NM,5/21/1993,7/31/1993,May,5/21/1993 14:58,7/31/1993 15:00,71,4/21/1993,1993,Apr,722720,71444.93612,93063,1941,2020,16,100,File Not Found,-1,-1,-1,-1,-1,-1,-1,-1,-1,-1,-1,-1,-1,-1,-1,-1
36877,IRON,6400,G,Lightning,33.39666667,-108.495,NM,5/24/1993,7/14/1993,May,5/24/1993 16:55,7/14/1993 11:00,51,4/24/1993,1993,Apr,722721,90068.60411,93063,1978,2020,16,100,File Not Found,-1,-1,-1,-1,-1,-1,-1,-1,-1,-1,-1,-1,-1,-1,-1,-1
36889,CLAYTON,3200,F,Lightning,33.37333333,-108.5033333,NM,7/16/1993,8/17/1993,Jul,7/16/1993 16:02,8/17/1993 8:20,32,6/16/1993,1993,Jun,722720,87916.31714,93063,1941,2020,16,50,File Not Found,-1,-1,-1,-1,-1,-1,-1,-1,-1,-1,-1,-1,-1,-1,-1,-1
36968,BURGETT,5350,G,Campfire,32.95166667,-105.6183333,NM,4/18/1993,4/25/1993,Apr,4/18/1993 14:25,4/25/1993 18:00,7,3/19/1993,1993,Mar,722693,37001.69546,93097,1980,1998,12,100,722693-99999-1993.gz,0,0,0,0,0,0,0,0,0,0,0,0,0,0,0,0
37021,QUEMADO,4300,F,Lightning,35.96166667,-105.7916667,NM,6/15/1993,7/15/1993,Jun,6/15/1993 15:20,7/15/1993 18:00,30,5/16/1993,1993,May,723656,46744.06558,23049,1941,2020,15,50,723656-23049-1993.gz,19.9060166,20.96166667,20.61727273,24.68490153,4.813721414,5.05875,4.105454545,4.597587719,34.17047817,25.4875,29.25454545,33.14096916,0,0,0,0
37129,EDWARDS,3094,F,Lightning,33.83333333,-111.35,AZ,8/1/1993,8/4/1993,Aug,8/1/1993 14:25,8/4/1993 18:00,3,7/2/1993,1993,Jul,723745,47005.4392,374,1943,1998,16,50,723745-93139-1993.gz,25.64772727,25.34382022,26.53658537,28.22,2.807954545,2.41011236,2.156097561,2.365,38.82285714,32.20454545,32.19512195,38.2,15,1,0,0
37237,KINNELOA,5700,G,Campfire,34.185,-118.0866667,CA,10/27/1993,11/6/1993,Oct,10/27/1993 3:49,11/6/1993 6:00,10,9/27/1993,1993,Sep,722890,5624.479291,93136,1942,2020,16,100,722890-93136-1993.gz,16.00803571,13.26140351,16.06296296,14.38055556,2.959821429,2.771929825,2.666666667,3.180555556,36.33928571,42.01754386,20.66666667,14.58333333,0,0,0,0
37288,ORTEGA,21384,G,Miscellaneous,33.47166667,-117.4883333,CA,10/27/1993,11/3/1993,Oct,10/27/1993 16:15,11/3/1993 18:00,7,9/27/1993,1993,Sep,722933,13517.21364,99999,1975,2018,16,100,722933-99999-1993.gz,12.11875,16.0875,21.1,21.31428571,0.833333333,1,0,2.2,0,0,0,0,0,0,0,0
37291,EAGLE,4600,F,Campfire,32.98333333,-116.7333333,CA,5/9/1993,5/16/1993,May,5/9/1993 9:02,5/16/1993 18:00,7,4/9/1993,1993,Apr,722907,27491.91421,99999,1978,1999,12,50,722907-99999-1993.gz,19.42036613,19.3764977,18.766,21.44711538,2.9402746,2.930414747,2.977,3.411538462,0,0,0,56,0,0,0,0
37295,GUEJITO,20768,G,Miscellaneous,33.15833333,-116.9733333,CA,10/27/1993,11/1/1993,Oct,10/27/1993 3:51,11/1/1993 2:42,5,9/27/1993,1993,Sep,722927,28809.69621,99999,1977,1996,16,100,722927-99999-1993.gz,25.8,15.5,15.5,21.1,2.3,0,0,3.6,0,0,0,68,0,0,0,0
37332,MARRE,43201,G,Smoking,34.68666667,-119.9583333,CA,9/25/1993,10/8/1993,Sep,9/25/1993 15:30,10/8/1993 18:00,13,8/26/1993,1993,Aug,722895,46668.04876,99999,1978,2005,16,100,722895-99999-1993.gz,15.84442877,15.25126761,15.19341317,15.67717042,2.799293785,2.855492958,2.908982036,2.760128617,62.61111111,60.85673352,59.94409938,55.96370968,0,0,0,0
37398,MILL CREEK,4680,F,Equipment Use,34.08333333,-117.0383333,CA,10/27/1993,10/29/1993,Oct,10/27/1993 6:44,10/29/1993 18:00,2,9/27/1993,1993,Sep,722867,17930.10489,99999,1942,1999,16,50,722867-23156-1993.gz,20.39475983,18.18151261,23.14761905,20.77857143,3.642358079,3.896638655,4.833333333,6.228571429,43.3625731,46.35632184,27.80952381,26.07142857,0,0,0,0
37400,REPPLIER,8780,G,Equipment Use,33.94,-116.8833333,CA,11/2/1993,11/5/1993,Nov,11/2/1993 9:42,11/5/1993 6:00,3,10/3/1993,1993,Oct,722867,7774.145355,99999,1942,1999,16,100,722867-23156-1993.gz,19.04078947,21,21.77045455,20.38181818,3.845175439,4.743956044,5.140909091,6.577272727,45.17751479,33.5,30.1627907,27.35,0,0,0,0
38575,MARKHAM,35696,G,Lightning,32.46333333,-110.3866667,AZ,6/15/1993,6/20/1993,Jun,6/15/1993 14:30,6/20/1993 18:00,5,5/16/1993,1993,May,722745,57134.64154,23109,1954,2020,12,100,722745-23109-1993.gz,26.63216292,26.86197183,27.93095238,31.6512605,3.665449438,3.732957746,3.383928571,4.361344538,25.42275281,18.44225352,16.54166667,15.84033613,3.8,0,0,0
39544,YELLOW,4500,F,Debris Burning,33.1834,-105.3505,NM,1/24/1994,1/24/1994,Jan,1/24/1994 12:10,1/24/1994 20:30,0,12/25/1993,1993,Dec,722693,70938.66984,93097,1980,1998,16,50,722693-99999-1993.gz,0,0,0,0,0,0,0,0,0,0,0,0,0,0,0,0
40821,304222,23501,G,Lightning,61.3159,-159.4857,AK,6/2/1993,6/10/1993,Jun,6/2/1993 16:13,6/10/1993 22:00,8,5/3/1993,1993,May,703052,51295.1553,99999,1953,2005,0,100,File Not Found,-1,-1,-1,-1,-1,-1,-1,-1,-1,-1,-1,-1,-1,-1,-1,-1
40822,332229,11250,G,Lightning,62.816,-157.8024,AK,6/2/1993,6/16/1993,Jun,6/2/1993 16:20,6/16/1993 17:00,14,5/3/1993,1993,May,702315,93409.82967,26536,1973,2020,0,100,702315-99999-1993.gz,10.99774011,14.24907975,15.64359606,13.73911807,2.397608559,2.313899139,1.767654321,1.784165478,57.04977946,50.65147783,44.69554455,61.79857143,0,0,0,0
40833,332248,36250,G,Lightning,65.7995,-149.7192,AK,6/4/1993,9/3/1993,Jun,6/4/1993 17:48,9/3/1993 11:50,91,5/5/1993,1993,May,701793,99080.15755,99999,1973,2020,0,100,701793-99999-1993.gz,19.52777778,19.52777778,20.409375,17.67651515,2.482857143,2.482857143,2.509677419,2.018939394,79.25714286,79.25714286,78.09677419,76.00769231,0,0,0,0
40837,TAL SW 83,5180,G,Lightning,63.9828,-153.669,AK,6/4/1993,6/16/1993,Jun,6/4/1993 19:30,6/16/1993 14:19,12,5/5/1993,1993,May,702625,112703.5179,99999,1946,2020,0,100,File Not Found,-1,-1,-1,-1,-1,-1,-1,-1,-1,-1,-1,-1,-1,-1,-1,-1
40858,3322292,47494,G,Lightning,66.1164,-142.8692,AK,6/6/1993,9/8/1993,Jun,6/6/1993 13:50,9/8/1993 14:00,94,5/7/1993,1993,May,702674,62945.36284,99999,1983,2005,0,100,702674-99999-1993.gz,14.16296296,15.54736842,18.705,18.79548872,3.018867925,2.563636364,2.225,2.728787879,49.60952381,48.85454545,43.9,54.6259542,0,0,0,0
40871,CEMSE34,21210,G,Lightning,65.2663,-143.6357,AK,6/15/1993,9/10/1993,Jun,6/15/1993 14:11,9/10/1993 14:00,87,5/16/1993,1993,May,701970,53710.15881,99999,1973,2020,0,100,File Not Found,-1,-1,-1,-1,-1,-1,-1,-1,-1,-1,-1,-1,-1,-1,-1,-1
40903,TAL N 25,26200,G,Lightning,65.5662,-151.8859,AK,6/30/1993,8/18/1993,Jun,6/30/1993 17:07,8/18/1993 12:39,49,5/31/1993,1993,May,701780,44814.36906,26529,1973,2005,0,100,701780-26529-1993.gz,17.44884211,17.47016807,16.93,19.57680851,3.177330508,3.126271186,2.62,3.133829787,55.35381356,58.16101695,61.17272727,59.25,0,0,0,0
40917,DCKN 178,16740,G,Lightning,69.7828,-158.3699,AK,7/3/1993,8/17/1993,Jul,7/3/1993 17:52,8/17/1993 20:00,45,6/3/1993,1993,Jun,702685,84159.29509,27518,1945,2020,0,100,File Not Found,-1,-1,-1,-1,-1,-1,-1,-1,-1,-1,-1,-1,-1,-1,-1,-1
40926,304536,28010,G,Lightning,61.766,-155.9357,AK,7/12/1993,8/23/1993,Jul,7/12/1993 19:28,8/23/1993 12:13,42,6/12/1993,1993,Jun,703407,64396.6065,99999,1973,2020,0,100,File Not Found,-1,-1,-1,-1,-1,-1,-1,-1,-1,-1,-1,-1,-1,-1,-1,-1
40929,332554,10723,G,Lightning,66.583,-146.2026,AK,7/14/1993,9/8/1993,Jul,7/14/1993 8:55,9/8/1993 14:00,56,6/14/1993,1993,Jun,701940,41559.97013,26413,1943,2020,0,100,701940-26413-1993.gz,17.1135785,18.10056338,17.00552147,16.9486676,2.119943423,1.917464789,1.683435583,2.658625526,55.08628006,58.70422535,59.3803681,57.6802244,0,0,0,0
40931,332557,215360,G,Lightning,65.8997,-143.6358,AK,7/14/1993,9/10/1993,Jul,7/14/1993 17:48,9/10/1993 14:00,58,6/14/1993,1993,Jun,702674,21039.2916,99999,1983,2005,0,100,702674-99999-1993.gz,19.52336449,20.46666667,18.575,18.19263158,2.728037383,2.945238095,2.833333333,2.565957447,52.03773585,55.69047619,56.5,58.19148936,0,0,0,0
40936,FYUN 60,20942,G,Lightning,67.4497,-144.0694,AK,7/15/1993,9/8/1993,Jul,7/15/1993 22:43,9/8/1993 14:00,55,6/15/1993,1993,Jun,701945,97644.99349,99999,1973,1996,0,100,File Not Found,-1,-1,-1,-1,-1,-1,-1,-1,-1,-1,-1,-1,-1,-1,-1,-1
40937,TAL S 27,7870,G,Lightning,64.7328,-152.3191,AK,7/16/1993,8/18/1993,Jul,7/16/1993 8:40,8/18/1993 15:40,33,6/16/1993,1993,Jun,701780,50310.20259,26529,1973,2005,0,100,701780-26529-1993.gz,18.05381356,18.44102564,20.61308411,17.47154989,3.138085106,3.123076923,2.81682243,2.973036093,57.91452991,58.56896552,54.23364486,67.11663067,0,0,0,0
40939,331573,5810,G,Lightning,67.1663,-147.8194,AK,7/16/1993,9/8/1993,Jul,7/16/1993 14:44,9/8/1993 14:00,54,6/16/1993,1993,Jun,701748,129496.7135,99999,1945,2020,0,100,701748-99999-1993.gz,14.784,15.55833333,17.18571429,12.08148148,1.736,0.791666667,0.5,3.018518519,0,0,0,0,0,0,0,0
40941,331582,7200,G,Lightning,64.7662,-151.2691,AK,7/16/1993,9/3/1993,Jul,7/16/1993 18:05,9/3/1993 11:50,49,6/16/1993,1993,Jun,701793,39241.83432,99999,1973,2020,0,100,701793-99999-1993.gz,18.40074627,18.96666667,21.365625,17.52846715,2.086567164,2.115151515,1.253125,1.489051095,67.76923077,61.765625,58.40625,70.1092437,0,0,0,0
40942,331585,5530,G,Lightning,64.1997,-141.0856,AK,7/16/1993,9/8/1993,Jul,7/16/1993 18:53,9/8/1993 14:00,54,6/16/1993,1993,Jun,999999,64430.07206,26422,1945,2004,0,100,999999-11641-1993.gz,27.82833333,27.73777778,27.5625,28.61680556,4.870833333,4.752777778,4.719047619,4.513611111,77.02222222,76.725,76.3452381,75.13611111,0,0,0,0
40943,CEMW62,4470,F,Lightning,65.8329,-147.4025,AK,7/17/1993,9/9/1993,Jul,7/17/1993 9:50,9/9/1993 17:55,54,6/17/1993,1993,Jun,702615,111365.4771,26498,1978,2005,0,50,702615-99999-1993.gz,17.25190678,19.03642384,22.9047619,17.50530726,1.512903226,1.81986755,1.307142857,2.129329609,58.66017316,54.26490066,41.76190476,59.6713881,11.5,0,0,0
40944,FYUSE 35,3344,F,Lightning,66.0663,-145.5859,AK,7/17/1993,9/8/1993,Jul,7/17/1993 15:36,9/8/1993 14:00,53,6/17/1993,1993,Jun,701940,57635.98435,26413,1943,2020,0,50,701940-26413-1993.gz,17.52592068,18.71864407,20.75864198,15.90268741,1.945467422,1.818644068,1.222839506,2.751343706,55.70396601,57.06214689,50.71604938,59.92927864,0,0,0,0
40958,304632,11550,G,Lightning,61.4326,-159.919,AK,7/19/1993,8/5/1993,Jul,7/19/1993 8:24,8/5/1993 18:00,17,6/19/1993,1993,Jun,703052,24734.69917,99999,1953,2005,0,100,File Not Found,-1,-1,-1,-1,-1,-1,-1,-1,-1,-1,-1,-1,-1,-1,-1,-1
40961,331639,3410,F,Lightning,64.2494,-157.6358,AK,7/19/1993,8/19/1993,Jul,7/19/1993 16:32,8/19/1993 17:40,31,6/19/1993,1993,Jun,702006,54263.39247,26502,1940,2020,0,50,File Not Found,-1,-1,-1,-1,-1,-1,-1,-1,-1,-1,-1,-1,-1,-1,-1,-1
40962,313641,4100,F,Lightning,62.7163,-142.2022,AK,7/19/1993,9/10/1993,Jul,7/19/1993 17:39,9/10/1993 8:00,53,6/19/1993,1993,Jun,702915,91022.39035,26486,1945,2005,0,50,702915-99999-1993.gz,14.67434211,16.45526316,20.484,14.26576271,2.759933775,2.749342105,2.14,2.356271186,63.45033113,57.29605263,46.96,71.30689655,0,0,0,0
40965,331653,4800,F,Lightning,64.0994,-157.1358,AK,7/20/1993,8/19/1993,Jul,7/20/1993 15:22,8/19/1993 19:40,30,6/20/1993,1993,Jun,702220,71309.22059,99999,1984,2005,0,50,702220-99999-1993.gz,16.31748942,17.27,19.21011905,15.15319444,1.512022631,1.305277778,1.248214286,1.874722222,63.51274788,64.23888889,63.01190476,73.12849162,32.6,22,10,42.3
40967,332663,3200,F,Lightning,63.4828,-152.7356,AK,7/21/1993,8/13/1993,Jul,7/21/1993 10:49,8/13/1993 16:25,23,6/21/1993,1993,Jun,702625,96537.99718,99999,1946,2020,0,50,File Not Found,-1,-1,-1,-1,-1,-1,-1,-1,-1,-1,-1,-1,-1,-1,-1,-1
40968,331662,3300,F,Lightning,64.166,-156.8358,AK,7/21/1993,8/19/1993,Jul,7/21/1993 12:11,8/19/1993 19:49,29,6/21/1993,1993,Jun,702220,63384.53325,99999,1984,2005,0,50,702220-99999-1993.gz,16.54527504,17.83527778,19.16666667,14.90215517,1.451626591,1.271388889,1.238690476,1.904885057,63.92776204,64.19166667,63.82142857,73.63583815,32.6,22,10,42.3
40973,DCKN190,82370,G,Lightning,69.8495,-159.2199,AK,7/22/1993,8/18/1993,Jul,7/22/1993 17:30,8/18/1993 19:00,27,6/22/1993,1993,Jun,700300,88868.93789,99999,1945,2020,0,100,File Not Found,-1,-1,-1,-1,-1,-1,-1,-1,-1,-1,-1,-1,-1,-1,-1,-1
40977,CEMNE62,5960,G,Lightning,65.6997,-142.2691,AK,7/22/1993,9/10/1993,Jul,7/22/1993 20:05,9/10/1993 14:00,50,6/22/1993,1993,Jun,702674,83706.43333,99999,1983,2005,0,100,702674-99999-1993.gz,19.52247191,19.12142857,19.53125,17.42831858,2.528089888,2.346428571,1.98125,2.484821429,53.84269663,55.10714286,54.0625,58.8125,0,0,0,0
41005,CEDAR WASH,7406.6,G,Lightning,36.5166,-113.9508,AZ,6/20/1993,6/23/1993,Jun,6/20/1993 21:13,6/23/1993 18:00,3,5/21/1993,1993,May,999999,92863.92194,53166,1949,2004,0,100,999999-11641-1993.gz,27.98236111,27.76444444,27.4077381,27.28472222,3.973194444,4.236944444,3.832738095,6.218055556,76.85833333,76.19166667,78.02380952,80.48611111,0,0,0,0
41074,HAQUAHALA,4824,F,Lightning,33.8334,-113.3174,AZ,7/14/1993,7/19/1993,Jul,7/14/1993 11:30,7/19/1993 18:00,5,6/14/1993,1993,Jun,722788,98235.03799,99999,1942,2020,16,50,722788-99999-1993.gz,35.40216346,35.23235294,35.32921348,34.51971831,4.377239709,4.697524752,4.498876404,4.102816901,23.30582524,29.87064677,33.09090909,24.84507042,0,0,0,0
41126,111 RANCH,6185,G,Miscellaneous,32.7001,-109.2006,AZ,4/29/1993,5/2/1993,Apr,4/29/1993 11:30,5/2/1993 18:00,3,3/30/1993,1993,Mar,722747,43789.56415,99999,1973,2020,12,100,722747-99999-1993.gz,17.45156993,19.12277512,21.35371901,22.51442308,2.414176974,2.371578947,2.283884298,2.835576923,31.85918173,25.20478469,23.33057851,23.03846154,0,0,0,0
41183,ELK HILLS2,7100,G,Powerline,35.2666,-119.5843,CA,5/10/1993,5/11/1993,May,5/10/1993 16:03,5/11/1993 2:00,1,4/10/1993,1993,Apr,723840,51657.02992,23155,1942,2020,15,100,723840-23155-1993.gz,18.32250712,20.17211268,19.5202381,29.3375,3.513247863,3.582253521,4.055952381,5.416666667,51.15736767,47.67887324,48.43452381,22.20833333,0,0,0,0
41200,ORCHARD,16000,G,Lightning,35.7333,-120.151,CA,6/20/1993,6/20/1993,Jun,6/20/1993 12:36,6/20/1993 18:00,0,5/21/1993,1993,May,723965,43737.03443,93209,1976,1996,15,100,723965-93209-1993.gz,19.18242075,20.73333333,23.64878049,0,4.168831169,4.257925072,4.296319018,0,57.09985528,50.34202899,41.12269939,0,0,0,0,0
41228,RANCHO,6000,G,Equipment Use,36.3166,-121.4844,CA,8/1/1993,8/4/1993,Aug,8/1/1993 11:52,8/4/1993 18:00,3,7/2/1993,1993,Jul,745054,35846.17369,99999,1975,1996,0,100,File Not Found,-1,-1,-1,-1,-1,-1,-1,-1,-1,-1,-1,-1,-1,-1,-1,-1
41336,OPAL 2,8360,G,Lightning,35.2,-117.1675,CA,8/27/1993,8/28/1993,Aug,8/27/1993 15:00,8/28/1993 18:00,1,7/28/1993,1993,Jul,692494,15982.96051,99999,1978,2002,15,100,File Not Found,-1,-1,-1,-1,-1,-1,-1,-1,-1,-1,-1,-1,-1,-1,-1,-1
41359,CALIFORNIA,24387,G,Powerline,33.6834,-117.0175,CA,10/26/1993,11/6/1993,Oct,10/26/1993 11:26,11/6/1993 18:00,11,9/26/1993,1993,Sep,722867,28077.45125,99999,1942,1999,16,100,722867-23156-1993.gz,20.39339207,17.8601626,22.72222222,21.16986301,3.598237885,3.764227642,4.647222222,5.435616438,43.82738095,50.40909091,29.11111111,28.6,0,0,0,0
41391,SUNBEAM,12410,G,Miscellaneous,40.5166,-108.284,CO,7/10/1993,7/12/1993,Jul,7/10/1993 12:30,7/12/1993 18:00,2,6/10/1993,1993,Jun,724674,61979.57715,99999,1980,2005,15,100,File Not Found,-1,-1,-1,-1,-1,-1,-1,-1,-1,-1,-1,-1,-1,-1,-1,-1
41407,WAPATI PK,9600,G,Miscellaneous,40.3333,-108.3006,CO,8/16/1993,8/19/1993,Aug,8/16/1993 14:57,8/19/1993 12:00,3,7/17/1993,1993,Jul,724674,47360.4253,99999,1980,2005,14,100,File Not Found,-1,-1,-1,-1,-1,-1,-1,-1,-1,-1,-1,-1,-1,-1,-1,-1
41415,RED WASH,3940,F,Debris Burning,40.7166,-108.0173,CO,9/30/1993,10/2/1993,Sep,9/30/1993 16:00,10/2/1993 18:00,2,8/31/1993,1993,Aug,725700,47523.12815,99999,1977,1995,15,50,725700-99999-1993.gz,11.21669847,9.475167144,8.462090164,11.03706294,2.497994269,2.352053486,1.804713115,2.860839161,45.47609943,47.01147228,44.32786885,30.36363636,0,0,0,0
41553,WHITE ROCK,3069,F,Arson,38.1333,-114.0675,NV,7/15/1993,7/19/1993,Jul,7/15/1993 15:10,7/19/1993 8:00,4,6/15/1993,1993,Jun,999999,118551.8365,53166,1949,2004,0,50,999999-11641-1993.gz,27.84652778,27.78916667,27.62380952,28.28541667,4.82,4.7075,4.648809524,3.98125,77.05555556,76.85555556,77.04166667,75.09375,0,0,0,0
41595,MEADOW,21686,G,Miscellaneous,37.15,-114.5508,NV,7/28/1993,8/1/1993,Jul,7/28/1993 15:07,8/1/1993 18:00,4,6/28/1993,1993,Jun,999999,104310.1929,53166,1949,2004,0,100,999999-11641-1993.gz,27.89111111,28.02194444,27.63809524,28.74270833,4.386666667,4.209444444,4.118452381,4.804166667,77.3125,77.10833333,79.93452381,73.82291667,0,0,0,0
41614,PASS,5954,G,Lightning,37.2,-114.6675,NV,8/7/1993,8/10/1993,Aug,8/7/1993 10:30,8/10/1993 10:30,3,7/8/1993,1993,Jul,690170,109140.9343,99999,1980,2008,0,100,690170-99999-1993.gz,0,0,0,0,0,0,0,0,0,0,0,0,0,0,0,0
41616,BUNKER,3200,F,Lightning,36.6833,-114.1341,NV,8/9/1993,8/19/1993,Aug,8/9/1993 13:20,8/19/1993 20:30,10,7/10/1993,1993,Jul,999999,89544.66446,53166,1949,2004,0,50,999999-11641-1993.gz,28.26347222,28.78833333,29.00654762,28.68625,4.448472222,4.660833333,4.656547619,4.372083333,75.94722222,74.53055556,73.08928571,74.35833333,0,0,0,0
41676,ESCONDIDO,8900,G,Lightning,32.1334,-105.8172,NM,6/1/1993,6/6/1993,Jun,6/1/1993 16:30,6/6/1993 23:59,5,5/2/1993,1993,May,722690,68570.77715,99999,1942,2020,12,100,722690-99999-1993.gz,24.04730022,25.86513761,26.53962264,28.20135135,2.439393939,2.114220183,2.076415094,3.581081081,26.05856833,29.17050691,28.69811321,13.10810811,0,0,0,0
41677,MASHED O,14103,G,Lightning,32.1501,-105.7839,NM,6/1/1993,6/6/1993,Jun,6/1/1993 16:30,6/6/1993 18:00,5,5/2/1993,1993,May,722690,70750.42821,99999,1942,2020,12,100,722690-99999-1993.gz,24.04730022,25.86513761,26.53962264,28.20135135,2.439393939,2.114220183,2.076415094,3.581081081,26.05856833,29.17050691,28.69811321,13.10810811,0,0,0,0
41681,ELPASODRAW,3252,F,Lightning,32.4501,-105.7172,NM,6/1/1993,6/5/1993,Jun,6/1/1993 19:25,6/5/1993 23:59,4,5/2/1993,1993,May,722693,50294.82879,93097,1980,1998,12,50,722693-99999-1993.gz,0,0,0,0,0,0,0,0,0,0,0,0,0,0,0,0
41682,MARTIN,4115,F,Lightning,32.3001,-105.8172,NM,6/1/1993,6/6/1993,Jun,6/1/1993 19:30,6/6/1993 18:00,5,5/2/1993,1993,May,722693,62057.66872,93097,1980,1998,12,50,722693-99999-1993.gz,0,0,0,0,0,0,0,0,0,0,0,0,0,0,0,0
41684,LINCH,27181,G,Lightning,31.5334,-108.6506,NM,6/9/1993,6/12/1993,Jun,6/9/1993 12:57,6/12/1993 14:00,3,5/10/1993,1993,May,722735,91153.26221,93026,1988,1999,12,100,722735-93026-1993.gz,22.46011478,22.90963173,22.31325301,22.57,3.574532374,3.991168091,4.822424242,2.528571429,30.31449275,26.49570201,19.18292683,21.87142857,0,0,0,0
41687,UVAS,11856,G,Lightning,32.5501,-107.1672,NM,6/16/1993,6/21/1993,Jun,6/16/1993 21:10,6/21/1993 18:00,5,5/17/1993,1993,May,722690,66938.54751,99999,1942,2020,12,100,722690-99999-1993.gz,26.89248292,27.90588235,28.49142857,28.64588235,2.467425968,2.815837104,1.751428571,2.364285714,24.13013699,19.18099548,24.6952381,31.82142857,0,0,0,0
41696,SHILOH,4244,F,Lightning,32.2168,-107.9339,NM,7/10/1993,7/10/1993,Jul,7/10/1993 11:53,7/10/1993 22:00,0,6/10/1993,1993,Jun,722720,51096.71434,93063,1941,2020,12,50,File Not Found,-1,-1,-1,-1,-1,-1,-1,-1,-1,-1,-1,-1,-1,-1,-1,-1
41701,RANGE,9000,G,Lightning,33.5501,-106.7339,NM,7/11/1993,7/12/1993,Jul,7/11/1993 19:00,7/12/1993 6:00,1,6/11/1993,1993,Jun,722710,60622.24891,93045,1987,2005,16,100,722710-93045-1993.gz,26.90594059,29.15976676,0,0,3.722630835,3.586588921,0,0,24.4582744,25.02332362,0,0,0,0,0,0
41757,LAVADE,3500,F,Lightning,33.3668,-104.7672,NM,5/25/1993,5/25/1993,May,5/25/1993 14:30,5/25/1993 20:00,0,4/25/1993,1993,Apr,722680,24996.17871,23009,1973,2005,16,50,722680-23009-1993.gz,20.50111111,21.32444444,22.33571429,0,4.435277778,4.258333333,4.830952381,0,38.01388889,40.79166667,44.51190476,0,0,0,0,0
41762,JALTWO,19610,G,Equipment Use,32.2168,-103.4505,NM,6/3/1993,6/4/1993,Jun,6/3/1993 13:15,6/4/1993 20:00,1,5/4/1993,1993,May,722688,56168.02175,99999,1973,2012,12,100,722688-93034-1993.gz,23.66313646,24.85668016,26.70169492,30.0625,5.286938776,5.068292683,5.227966102,8.1625,37.70515464,42.20408163,36.33050847,16.4375,2.3,0,0,0
41906,BOTTOM,3182,F,Lightning,38.653,-112.7752,UT,7/9/1993,7/11/1993,Jul,7/9/1993 17:25,7/11/1993 18:30,2,6/9/1993,1993,Jun,724795,77036.48114,99999,1973,2010,0,50,724795-99999-1993.gz,20.77857143,22.01728395,22.67777778,19.28,3.426946108,4.0875,4.6,2.82,35.7005988,29.7625,31.6,34,1,0,0,0
41956,MOOSE CRK1,11249,G,Lightning,63.6828,-151.0856,AK,6/3/1993,9/3/1993,Jun,6/3/1993 18:15,9/3/1993 12:00,92,5/4/1993,1993,May,999999,105106.7023,26414,1945,2004,0,100,999999-11641-1993.gz,27.53833333,27.99916667,28.35119048,28.08958333,3.583194444,3.548055556,4.417857143,4.676388889,76.54722222,77.98055556,76.75595238,76.01111111,0,0,0,0
41957,TOLKAT RV,3554,F,Lightning,63.9162,-150.119,AK,7/28/1993,8/20/1993,Jul,7/28/1993 19:20,8/20/1993 17:00,23,6/28/1993,1993,Jun,702648,81627.06605,99999,1975,2005,0,50,702648-99999-1993.gz,15.36240602,17.75037037,15.859375,12.387,3.505639098,3.302962963,3.896875,3.2215,67.54339623,65.25185185,68.21875,74.47236181,0,0,0,0
42015,MAYDAY,3494.7,F,Lightning,29.18468,-103.65319,TX,5/31/1993,6/10/1993,May,5/31/1993 22:00,6/10/1993 14:30,10,5/1/1993,1993,May,722640,135698.192,99999,1948,2020,12,50,722640-93035-1993.gz,18.34550562,19.31699717,19.23803681,23.43946188,4.345786517,3.980169972,3.770552147,4.584753363,37.34410112,43.39943343,42.6196319,27.60089686,0,0,0,0
42020,PINE,6510,G,Children,31.89611,-104.82667,TX,5/8/1993,5/11/1993,May,5/8/1993 14:00,5/11/1993 18:00,3,4/8/1993,1993,Apr,722676,111063.2865,99999,1944,2005,12,100,File Not Found,-1,-1,-1,-1,-1,-1,-1,-1,-1,-1,-1,-1,-1,-1,-1,-1
42128,GREENMEADO,38152,G,Arson,34.1667,-118.8676,CA,10/26/1993,11/4/1993,Oct,10/26/1993 14:30,11/4/1993 20:00,9,9/26/1993,1993,Sep,722954,16855.03025,99999,1983,2005,16,100,722954-99999-1993.gz,13.60434783,12.4,17.32666667,11.49444444,3.270909091,2.874074074,2.721428571,4.891666667,0,0,0,0,0,0,0,0
42350,GNATCATCHE,5711,G,Lightning,30.5936111,-82.3219444,GA,6/8/1993,,Jun,6/8/1993 1:00,,,5/9/1993,1993,May,722060,61238.25882,13889,1973,2010,12,100,722060-13889-1993.gz,23.59541667,24.75527778,26.76071429,26.34027778,3.455833333,3.260555556,3.473214286,3.139444444,69.28085106,74.0057971,69.82098765,74.36215334,117.3,73.7,2,342.5
42491,CRATER CRE,6782,G,Miscellaneous,34.683,-98.6,OK,8/18/1993,8/21/1993,Aug,8/18/1993 13:00,8/21/1993 2:30,3,7/19/1993,1993,Jul,723550,20518.78049,99999,1980,2005,16,100,723550-13945-1993.gz,29.70817175,28.73850416,31.55238095,31.02916667,3.301525659,3.356509695,3.430952381,3.452777778,53.57142857,55.69252078,43.66071429,40.79166667,7.9,4.9,0,0
42525,WESTEND,3500,F,Miscellaneous,29.65,-94.2167,TX,9/3/1993,9/5/1993,Sep,9/3/1993 13:30,9/5/1993 9:00,2,8/4/1993,1993,Aug,994510,16248.68435,99999,1988,2020,12,50,File Not Found,-1,-1,-1,-1,-1,-1,-1,-1,-1,-1,-1,-1,-1,-1,-1,-1
42553,HIGHWAY 24,12705,G,Equipment Use,46.73333333,-119.5166667,WA,6/14/1993,6/15/1993,Jun,6/14/1993 14:40,6/15/1993 22:00,1,5/15/1993,1993,May,727840,19559.78473,99999,1981,1998,15,100,727840-99999-1993.gz,19.79226361,18.51005747,17.74969325,23.70416667,4.251289398,4.331034483,5.089570552,4.033333333,48.19340974,51.60344828,43.41104294,31.75,49.3,32.9,1.2,0
49211,FREEZEOUT LAKE,7680,G,Missing/Undefined,47.63224,-112.27525,MT,11/3/1993,,Nov,11/3/1993 4:00,,,10/4/1993,1993,Oct,727750,69524.91618,24143,1973,2020,15,100,727750-24143-1993.gz,7.095145631,6.079224377,3.695266272,-1.890833333,5.286962552,6.382548476,6.759171598,6.372083333,60.2056338,53.67867036,56.75739645,63.31337047,105,32.7,20.7,84.9
49240,,3389,F,Smoking,33.86121691,-112.1363952,AZ,6/10/1993,6/12/1993,Jun,6/10/1993 13:31,6/12/1993 18:00,2,5/11/1993,1993,May,722784,19839.3169,99999,1973,2020,16,50,722784-99999-1993.gz,30.72562278,30.5164557,28.64074074,30.12857143,3.485,3.450632911,3.187037037,2.228571429,20.03249097,17.10322581,16.37037037,16.28571429,0,0,0,0
49542,,6628,G,Equipment Use,33.5827877,-112.5670209,AZ,7/31/1993,8/4/1993,Jul,7/31/1993 12:01,8/4/1993 18:00,4,7/1/1993,1993,Jul,722788,25110.17349,99999,1942,2020,16,100,722788-99999-1993.gz,34.39831325,33.89095238,34.31515152,38.03962264,4.041545894,3.58952381,3.250505051,3.828846154,26.34624697,22.03333333,23.4040404,24.98076923,0,0,0,0
49973,WOODS,7000,G,Missing/Undefined,34.75583267,-103.538887,NM,1/5/1994,,Jan,,,,12/6/1993,1993,Dec,722018,16125.74753,99999,1973,2020,16,100,File Not Found,-1,-1,-1,-1,-1,-1,-1,-1,-1,-1,-1,-1,-1,-1,-1,-1
54014,SPRINGS,12495,G,Miscellaneous,32.75474435,-110.8951805,AZ,6/25/1993,6/27/1993,Jun,6/25/1993 13:40,6/27/1993 0:00,2,5/26/1993,1993,May,749173,53691.55981,99999,1942,2020,12,100,File Not Found,-1,-1,-1,-1,-1,-1,-1,-1,-1,-1,-1,-1,-1,-1,-1,-1
54136,RAVINE,3500,F,Missing/Undefined,32.60142521,-110.9699579,AZ,6/26/1993,6/27/1993,Jun,6/26/1993 13:00,6/27/1993 19:00,1,5/27/1993,1993,May,722745,48864.90189,23109,1954,2020,12,50,722745-23109-1993.gz,28.55652174,31.13631285,31.0257485,34.4,3.828050491,3.816201117,3.445508982,3.443478261,18.12342216,14.79050279,14.16167665,11.52173913,0.5,0,0,0
58691,,4000.5,F,Railroad,25.645,-80.4981,FL,4/20/1993,,Apr,,,,3/21/1993,1993,Mar,722029,6560.417329,99999,1962,2005,12,50,722029-99999-1993.gz,22.81463415,22.28366762,22.6202454,24.20429185,4.39381295,4.721776504,5.003067485,4.624242424,71.39175258,68.06086957,66.9378882,65.35953421,0,0,0,0
58808,,8500,G,Railroad,25.44,-80.45,FL,5/19/1993,,May,,,,4/19/1993,1993,Apr,722029,23326.67555,99999,1962,2005,12,100,722029-99999-1993.gz,24.06057143,25.36473988,25.28012048,26.53347701,4.650647482,4.384593023,3.859036145,4.277279305,64.78664731,66.73900293,66.53374233,73.95400593,0,0,0,0
63678,PG&E #4                  ,5500,G,Equipment Use,36.94805555,-120.9,CA,6/1/1993,,Jun,,,,5/2/1993,1993,May,749179,46372.39936,99999,1943,2018,0,100,File Not Found,-1,-1,-1,-1,-1,-1,-1,-1,-1,-1,-1,-1,-1,-1,-1,-1
65772,BOX                      ,3500,F,Miscellaneous,33.96805555,-117.3038889,CA,10/27/1993,,Oct,,,,9/27/1993,1993,Sep,722869,12100.51417,99999,1973,1999,16,50,722869-99999-1993.gz,0,0,0,15.66666667,0,0,0,3.2,0,0,0,62.5,0,0,0,0
66738,PORCUPINE,4700,F,Lightning,64.633331,-144.816665,AK,7/16/1993,8/12/1993,Jul,,,27,6/16/1993,1993,Jun,701970,94994.08585,99999,1973,2020,0,50,File Not Found,-1,-1,-1,-1,-1,-1,-1,-1,-1,-1,-1,-1,-1,-1,-1,-1
66757,TOKLAT RV,4800,F,Lightning,63.916667,-150.116668,AK,7/28/1993,8/20/1993,Jul,,,23,6/28/1993,1993,Jun,702648,81581.5962,99999,1975,2005,0,50,702648-99999-1993.gz,15.36240602,17.75037037,15.859375,12.387,3.505639098,3.302962963,3.896875,3.2215,67.54339623,65.25185185,68.21875,74.47236181,0,0,0,0
72752,MADDOX 2,15000,G,Missing/Undefined,32.72057,-103.2803,NM,6/1/1993,,Jun,,,,5/2/1993,1993,May,722688,7011.839998,93034,1988,2005,12,100,722688-93034-1993.gz,22.77520325,23.92137097,24.92905983,27.45947581,5.212219959,4.813765182,4.535042735,6.148387097,38.59259259,45.29918033,41.55555556,43.42244898,3.3,2.3,0,5
72755,MENARD FIRE,10106,G,Missing/Undefined,30.96692087,-99.97448372,TX,8/15/1993,,Aug,,,,7/16/1993,1993,Jul,723628,66341.56646,93942,1948,2020,12,100,File Not Found,-1,-1,-1,-1,-1,-1,-1,-1,-1,-1,-1,-1,-1,-1,-1,-1
72756,BLUE ALLEGHENY FIRE,3808,F,Missing/Undefined,32.42459885,-100.2378121,TX,9/7/1993,,Sep,,,,8/8/1993,1993,Aug,690190,36485.889,13910,1943,2009,12,50,690190-13910-1993.gz,28.79444444,26.42083333,23.50892857,23.14583333,2.821805556,2.869166667,2.433333333,2.908611111,48.275,56.925,65,59.57746479,46,43,43,74
72757,DONAHOE FIRE,14016,G,Missing/Undefined,30.77908398,-104.2865874,TX,6/1/1993,,Jun,,,,5/2/1993,1993,May,722640,52496.16142,99999,1948,2020,12,100,722640-93035-1993.gz,18.53258427,19.31359773,19.64662577,22.28534107,4.269241573,4.044192635,3.738650307,4.018287373,37.10533708,44.6203966,42.18404908,47.34687954,0,0,0,0
72758,MCIVOR FIRE,15380,G,Missing/Undefined,30.67929247,-104.1842771,TX,6/1/1993,,Jun,,,,5/2/1993,1993,May,722640,38162.46101,99999,1948,2020,12,100,722640-93035-1993.gz,18.53258427,19.31359773,19.64662577,22.28534107,4.269241573,4.044192635,3.738650307,4.018287373,37.10533708,44.6203966,42.18404908,47.34687954,0,0,0,0
72759,SHAFTER FIRE,12691,G,Missing/Undefined,29.81887419,-104.2504914,TX,6/17/1993,,Jun,,,,5/18/1993,1993,May,722640,64796.6252,99999,1948,2020,12,100,722640-93035-1993.gz,20.58930636,21.96430678,19.90914634,22.66625767,4.232080925,4.466961652,4.182926829,3.526993865,42.4349711,39.78466077,56.03658537,55.90797546,0,0,0,0
72760,SAN SABA FIRE,12892,G,Missing/Undefined,31.10262831,-98.94747233,TX,8/15/1993,,Aug,,,,7/16/1993,1993,Jul,723628,36866.79741,93942,1948,2020,12,100,File Not Found,-1,-1,-1,-1,-1,-1,-1,-1,-1,-1,-1,-1,-1,-1,-1,-1
72992,FREEZEOUT,8212,G,Lightning,46.44666667,-114.9533333,ID,8/2/1994,10/20/1994,Aug,8/2/1994 16:15,10/20/1994 18:00,79,7/3/1994,1994,Jul,725784,59865.16577,4109,1973,2020,9,100,725784-99999-1994.gz,20.48827893,22.70847953,23.164375,19.9206278,0.981305638,0.954678363,0.9875,1.063527653,61.80860534,61.90643275,62.14375,57.51270553,0,0,0,0
73000,FERN CREEK,3078,F,Lightning,46.43666667,-114.5,ID,8/13/1994,9/3/1994,Aug,8/13/1994 14:00,9/3/1994 19:00,21,7/14/1994,1994,Jul,726774,34007.57983,99999,1990,2005,9,50,726774-99999-1994.gz,25.34,25.62,0,21.72352941,3.02,3.34,0,3.252941176,47,46.2,0,45.17647059,0,0,0,0
73082,DEAN RIDGE,3507,F,Lightning,47.95166667,-113.2716667,MT,8/5/1994,10/2/1994,Aug,8/5/1994 13:00,10/2/1994 10:00,58,7/6/1994,1994,Jul,727790,83614.98582,24146,1973,2020,15,50,727790-24146-1994.gz,21.12597577,22.64710526,21.75921788,18.58879781,2.433243607,2.056315789,2.093854749,2.41079235,49.11875843,49.5026455,50.66101695,48.88751715,53,28,28,143
73085,HELEN CREEK,8497,G,Lightning,47.71,-113.3316667,MT,8/16/1994,10/2/1994,Aug,8/16/1994 16:00,10/2/1994 10:00,47,7/17/1994,1994,Jul,727790,95924.08158,24146,1973,2020,15,100,727790-24146-1994.gz,22.12774799,22.22086721,22.21781609,14.86680328,2.400402145,2.636314363,2.572988506,2.056284153,46.68548387,43.90243902,41.02873563,56.5278174,54,54,26,148
73099,LITTLE WOLF,10610,G,Lightning,48.30333333,-114.8333333,MT,8/15/1994,9/11/1994,Aug,8/15/1994 12:30,9/11/1994 20:00,27,7/16/1994,1994,Jul,727790,42236.7348,24146,1973,2020,15,100,727790-24146-1994.gz,21.92304582,21.75513514,21.77514793,16.05787879,2.365902965,2.457837838,2.672189349,2.263181818,47.46891892,45.94293478,42.73372781,54.63664596,54,54,26,140
73104,BLACK BUTTE,12500,G,Lightning,45.67,-109.9916667,MT,9/8/1994,9/14/1994,Sep,9/8/1994 15:35,9/14/1994 11:00,6,8/9/1994,1994,Aug,726797,91960.77016,24132,1942,2020,15,100,726797-24132-1994.gz,20.16744186,17.87984496,16.19478261,17.96481481,3.071705426,3.096511628,3.133043478,2.980555556,42.60970874,43.83268482,46.00877193,40.21296296,0,0,0,0
73134,NORTH FORK BIG CREEK,9000,G,Lightning,48.75333333,-115.4883333,MT,8/15/1994,10/20/1994,Aug,8/15/1994 6:00,10/20/1994 18:00,66,7/16/1994,1994,Jul,727790,103313.2536,24146,1973,2020,16,100,727790-24146-1994.gz,21.92304582,21.75513514,21.77514793,15.37259159,2.365902965,2.457837838,2.672189349,2.150881954,47.46891892,45.94293478,42.73372781,55.42634561,54,54,26,148
73139,WEBB KNOB,3500,F,Lightning,48.80833333,-115.3416667,MT,8/15/1994,10/10/1994,Aug,8/15/1994 8:00,10/10/1994 12:00,56,7/16/1994,1994,Jul,727790,97332.55637,24146,1973,2020,16,50,727790-24146-1994.gz,21.92304582,21.75513514,21.77514793,15.37259159,2.365902965,2.457837838,2.672189349,2.150881954,47.46891892,45.94293478,42.73372781,55.42634561,54,54,26,148
73231,SCENERY 1,3245,F,Lightning,48.43333333,-115.6666667,MT,8/15/1994,9/4/1994,Aug,8/15/1994 6:00,9/4/1994 18:00,20,7/16/1994,1994,Jul,727795,95265.09403,99999,1942,2020,15,50,727795-99999-1994.gz,27.13951613,26.37846154,25.61666667,21.93195876,2.272580645,2.270769231,1.975,2.486597938,11,11,11,0,0,0,0,0
73240,SHEEP RANGE 3,5897,G,Lightning,48.48833333,-115.7133333,MT,8/15/1994,10/1/1994,Aug,8/15/1994 6:00,10/1/1994 18:00,47,7/16/1994,1994,Jul,727795,102037.9256,99999,1942,2020,15,100,727795-99999-1994.gz,27.13951613,26.37846154,25.61666667,20.0057554,2.272580645,2.270769231,1.975,2.254676259,11,11,11,0,0,0,0,0
73277,WINDY POINT,4217,F,Miscellaneous,46.70666667,-109.4338889,MT,9/8/1994,9/17/1994,Sep,9/8/1994 14:59,9/17/1994 19:00,9,8/9/1994,1994,Aug,726776,38101.02494,24036,1991,2005,15,50,726776-24036-1994.gz,17.40774648,14.81723164,13.9030303,16.01930693,3.611690141,4.01779661,4.41030303,3.486,42.58028169,45.62429379,45.15757576,41.26,0,0,0,0
73331,HENRY PEAK,8203,G,Lightning,47.425,-114.76,MT,7/26/1994,8/5/1994,Jul,7/26/1994 17:20,8/5/1994 18:00,10,6/26/1994,1994,Jun,727795,49898.12234,99999,1942,2020,15,100,727795-99999-1994.gz,23.74888889,26.31617647,28.69666667,28.16666667,2.636296296,2.342647059,2.333333333,2.145238095,0,0,0,0,0,0,0,0
73370,RAPID RIVER,3430,F,Lightning,45.28666667,-116.54,ID,8/3/1994,8/23/1994,Aug,8/3/1994 6:00,8/23/1994 18:00,20,7/4/1994,1994,Jul,725788,56678.91169,99999,1983,2005,9,50,File Not Found,-1,-1,-1,-1,-1,-1,-1,-1,-1,-1,-1,-1,-1,-1,-1,-1
73502,PETERSON-ELLIOTT,7150,G,Lightning,43.86666667,-104.6916667,WY,8/16/1994,8/18/1994,Aug,8/16/1994 15:35,8/18/1994 18:00,2,7/17/1994,1994,Jul,725686,131397.1585,94057,1943,2020,9,100,File Not Found,-1,-1,-1,-1,-1,-1,-1,-1,-1,-1,-1,-1,-1,-1,-1,-1
73647,UTE CREEK,3190,F,Lightning,39.965,-107.475,CO,7/12/1994,7/27/1994,Jul,7/12/1994 9:00,7/27/1994 14:00,15,6/12/1994,1994,Jun,724674,36311.53616,99999,1980,2005,0,50,File Not Found,-1,-1,-1,-1,-1,-1,-1,-1,-1,-1,-1,-1,-1,-1,-1,-1
73661,S CANYON,3294,F,Lightning,33.6,-109.0866667,AZ,4/23/1994,5/11/1994,Apr,4/23/1994 11:30,5/11/1994 19:00,18,3/24/1994,1994,Mar,722747,97157.0939,93084,1942,2010,16,50,722747-99999-1994.gz,17.4889265,19.69227053,22.93604167,18.78421927,1.954690522,1.880483092,1.683333333,2.360963455,26.44680851,23.79033816,21.82291667,27.39700997,0,0,0,0
73764,PINNACLE,6000,G,Lightning,33.81833333,-107.5983333,NM,4/7/1994,7/31/1994,Apr,4/7/1994 19:01,7/31/1994 16:00,115,3/8/1994,1994,Mar,722710,71407.24045,93045,1987,2005,16,100,722710-93045-1994.gz,12.68802083,12.99367328,14.7759596,17.43033866,4.299005211,4.601701323,4.371111111,4.075117592,32.15632402,24.88752363,19.9959596,22.12182502,0,0,0,0
73770,POT,22200,G,Lightning,33.70166667,-107.4616667,NM,6/5/1994,7/30/1994,Jun,6/5/1994 16:28,7/30/1994 18:30,55,5/6/1994,1994,May,722710,54591.15375,93045,1987,2005,16,100,722710-93045-1994.gz,21.61574766,22.97335835,26.46191446,29.45660019,3.958988764,3.379472693,3.40698152,3.624928639,30.48455056,34.59510358,26.99178645,18.59657469,0,0,0,0
73790,POGUE,6060,G,Miscellaneous,36.35833333,-103.2616667,NM,2/19/1994,2/19/1994,Feb,2/19/1994 14:30,2/19/1994 18:35,0,1/20/1994,1994,Jan,723600,13946.25948,23051,1953,2020,0,100,723600-23051-1994.gz,1.748016997,3.694007491,5.558433735,0,5.154196302,5.82371134,6.239959839,0,43.81081081,37.24929709,29.09036145,0,0,0,0,0
73872,RATTLESNAKE,27720,G,Lightning,31.90666667,-109.3033333,AZ,6/28/1994,7/30/1994,Jun,6/28/1994 14:00,7/30/1994 18:00,32,5/29/1994,1994,May,722720,57432.62926,93026,1947,2005,12,100,File Not Found,-1,-1,-1,-1,-1,-1,-1,-1,-1,-1,-1,-1,-1,-1,-1,-1
73904,COTTONWOOD,11809,G,Lightning,32.93833333,-110.23,AZ,6/22/1994,7/20/1994,Jun,6/22/1994 16:00,7/20/1994 18:00,28,5/23/1994,1994,May,722747,56431.23193,93084,1942,2010,12,100,722747-99999-1994.gz,28.25399787,28.92372047,28.29979424,31.14863884,1.922867804,2.089468504,2.089917695,2.188021779,22.91364606,22.92716535,28.80658436,25.7816092,0,0,0,0
73913,REDINGTON,5153,G,Lightning,32.26833333,-110.4533333,AZ,7/1/1994,7/9/1994,Jul,7/1/1994 13:00,7/9/1994 18:00,8,6/1/1994,1994,Jun,722745,42034.11837,23109,1954,2020,12,100,722745-23109-1994.gz,31.66694444,32.57305556,36.06785714,32.596875,4.085138889,4.249444444,4.538095238,4.150520833,20.59444444,26.78333333,18.11904762,21.27604167,8,8,7,0
73920,RINCON,14590,G,Lightning,32.19,-110.4983333,AZ,7/6/1994,7/24/1994,Jul,7/6/1994 16:30,7/24/1994 18:00,18,6/6/1994,1994,Jun,722745,36367.29043,23109,1954,2020,12,100,722745-23109-1994.gz,32.25055556,33.92472222,33.88452381,31.47314815,4.195138889,4.478611111,4.521428571,3.989583333,22.99305556,25.40277778,25.625,25.87731481,8,7,7,1
73977,MULE,5500,G,Lightning,33.02333333,-109.0366667,NM,5/25/1994,6/16/1994,May,5/25/1994 20:00,6/16/1994 18:00,22,4/25/1994,1994,Apr,722747,58986.573,93084,1942,2010,16,100,722747-99999-1994.gz,20.66065,22.84418838,24.28946188,28.37725948,2.30915,2.285370741,2.403363229,1.818440233,25.5525,25.38176353,18.89910314,20.0255102,0,0,0,0
74015,PIGEON,6250,G,Lightning,33.09833333,-107.9016667,NM,6/14/1994,7/30/1994,Jun,6/14/1994 11:17,7/30/1994 12:00,46,5/15/1994,1994,May,722721,57270.68505,93063,1978,2020,16,100,File Not Found,-1,-1,-1,-1,-1,-1,-1,-1,-1,-1,-1,-1,-1,-1,-1,-1
74126,PATOS,5133,G,Lightning,33.74333333,-105.6833333,NM,6/29/1994,9/10/1994,Jun,6/29/1994 17:00,9/10/1994 10:00,73,5/30/1994,1994,May,722693,104206.1706,93097,1980,1998,16,100,722693-99999-1994.gz,0,0,0,0,0,0,0,0,0,0,0,0,0,0,0,0
74141,BRIDGE,4966,F,Lightning,32.69666667,-105.755,NM,6/3/1994,6/18/1994,Jun,6/3/1994 10:40,6/18/1994 18:00,15,5/4/1994,1994,May,722693,27232.92031,93097,1980,1998,12,50,722693-99999-1994.gz,0,0,0,0,0,0,0,0,0,0,0,0,0,0,0,0
74172,PECK,4321,F,Lightning,34.28166667,-112.315,AZ,6/28/1994,7/6/1994,Jun,6/28/1994 13:20,7/6/1994 18:00,8,5/29/1994,1994,May,723723,42219.96947,23184,1946,2020,16,50,723723-23184-1994.gz,24.14194444,25.11583333,26.79583333,26.74947917,4.163333333,4.134444444,3.614880952,4.272916667,24.78194444,28.73888889,32.2797619,25.57291667,2.3,2.3,2.3,0
74177,CASTLE,4763,F,Lightning,34.22333333,-112.2116667,AZ,6/28/1994,7/6/1994,Jun,6/28/1994 16:00,7/6/1994 18:00,8,5/29/1994,1994,May,723723,51296.76261,23184,1946,2020,16,50,723723-23184-1994.gz,24.14194444,25.11583333,26.79583333,26.74947917,4.163333333,4.134444444,3.614880952,4.272916667,24.78194444,28.73888889,32.2797619,25.57291667,2.3,2.3,2.3,0
74338,ARMOR,5760,G,Lightning,33.77166667,-111,AZ,6/29/1994,7/12/1994,Jun,6/29/1994 17:15,7/12/1994 18:00,13,5/30/1994,1994,May,723745,62278.80375,374,1943,1998,16,100,723745-93139-1994.gz,25.55705882,26.37647059,29.2,27.97792208,2.552352941,2.622352941,2.565789474,3.051948052,33.13529412,36.74117647,35.02631579,29.96103896,10,10,0,1
74383,STAR GULCH,30655,G,Arson,43.695,-115.9333333,ID,8/19/1994,10/7/1994,Aug,8/19/1994 12:15,10/7/1994 18:00,49,7/20/1994,1994,Jul,726810,28613.57659,24131,1977,2010,9,100,726810-24131-1994.gz,28.06222222,26.56972222,26.93452381,20.68875,3.938333333,3.938888889,3.989285714,3.559861111,27.98194444,27.12222222,25.81547619,32.4125,0,0,0,8.1
74389,RABBIT CREEK #1,146400,G,Lightning,43.78166667,-115.6283333,ID,7/28/1994,10/8/1994,Jul,7/28/1994 6:00,10/8/1994 18:00,72,6/28/1994,1994,Jun,726810,54863.02261,24131,1977,2010,9,100,726810-24131-1994.gz,25.34555556,27.60555556,29.73511905,26.38611111,3.95875,3.889722222,3.818452381,3.811111111,29.72777778,27.67222222,28.18452381,28.18194444,5.4,0,0,0
74392,BEAR RIVER,4600,F,Lightning,43.90166667,-112.47,ID,8/7/1994,8/18/1994,Aug,8/7/1994 13:33,8/18/1994 18:00,11,7/8/1994,1994,Jul,724503,54958.12934,99999,1944,2020,9,50,File Not Found,-1,-1,-1,-1,-1,-1,-1,-1,-1,-1,-1,-1,-1,-1,-1,-1
74395,THUNDERBOLT,13400,G,Lightning,44.72333333,-115.6516667,ID,8/8/1994,10/30/1994,Aug,8/8/1994 13:46,10/30/1994 14:00,83,7/9/1994,1994,Jul,725788,39660.78853,99999,1983,2005,15,100,File Not Found,-1,-1,-1,-1,-1,-1,-1,-1,-1,-1,-1,-1,-1,-1,-1,-1
74461,PIONEER CREEK,7848,G,Lightning,44.51833333,-114.8516667,ID,8/10/1994,9/12/1994,Aug,8/10/1994 17:30,9/12/1994 18:00,33,7/11/1994,1994,Jul,727833,50219.92928,99999,1942,2010,15,100,727833-99999-1994.gz,21.86269504,21.33113208,22.35294118,19.10778709,2.086423841,2.001037736,2.242393509,2.053326762,41.60085227,48.32514178,37.38539554,34.98472154,0,0,0,0
74507,BLACK WILLOW,12031,G,Lightning,39.43333333,-112.2166667,UT,8/2/1994,8/13/1994,Aug,8/2/1994 14:54,8/13/1994 12:00,11,7/3/1994,1994,Jul,724795,33340.40334,99999,1973,2010,0,100,724795-99999-1994.gz,26.22058824,27.05913978,28.05581395,25.055,2.542364532,2.21827957,1.855813953,3.21125,27.41089109,32.3655914,35,42.84810127,6,6,6,20
74513,PRUNTY,3200,F,Lightning,41.71666667,-115.5166667,NV,7/28/1994,7/31/1994,Jul,7/28/1994 15:04,7/31/1994 18:00,3,6/28/1994,1994,Jun,725827,25314.70117,94190,1973,2000,15,50,725827-99999-1994.gz,20.80530973,22.08653846,23.31290323,23.11666667,3.139823009,3.019230769,3.141935484,2.45,25.18584071,26.96153846,28.16129032,33.83333333,1.3,1.3,1.3,0
74533,WILLOW BASIN,4200,F,Smoking,38.43333333,-109.0833333,UT,6/14/1994,6/24/1994,Jun,6/14/1994 12:30,6/24/1994 18:00,10,5/15/1994,1994,May,999999,56922.27691,53010,1948,1996,0,50,999999-11641-1994.gz,28.12097222,27.9575,28.03333333,27.86333333,4.800416667,4.647222222,5.117857143,5.403333333,71.06111111,72.25833333,71.42857143,74.25833333,0,0,0,0
74569,CORRAL CREEK,115659,G,Lightning,45.115,-116.1783333,ID,8/2/1994,10/31/1994,Aug,8/2/1994 12:00,10/31/1994 8:00,90,7/3/1994,1994,Jul,725788,26512.05452,99999,1983,2005,9,100,File Not Found,-1,-1,-1,-1,-1,-1,-1,-1,-1,-1,-1,-1,-1,-1,-1,-1
74577,BRUSH LAKE,8300,G,Lightning,45.04166667,-115.9733333,ID,8/4/1994,10/31/1994,Aug,8/4/1994 12:00,10/31/1994 15:30,88,7/5/1994,1994,Jul,725788,20267.98649,99999,1983,2005,9,100,File Not Found,-1,-1,-1,-1,-1,-1,-1,-1,-1,-1,-1,-1,-1,-1,-1,-1
74578,BLACKWELL,55890,G,Lightning,44.95666667,-116.005,ID,8/3/1994,10/31/1994,Aug,8/3/1994 19:31,10/31/1994 17:30,89,7/4/1994,1994,Jul,725788,11103.31342,99999,1983,2005,15,100,File Not Found,-1,-1,-1,-1,-1,-1,-1,-1,-1,-1,-1,-1,-1,-1,-1,-1
74597,TAG,4150,F,Lightning,45.41666667,-114.8833333,ID,8/11/1994,10/14/1994,Aug,8/11/1994 18:30,10/14/1994 15:00,64,7/12/1994,1994,Jul,726865,85277.44392,24196,1978,2005,9,50,726865-99999-1994.gz,20.13012552,19.88199446,20.32248521,18.15182186,1.567224547,1.645706371,1.853846154,1.536639676,40.94839609,44.55955679,38.09467456,41.86842105,0,0,0,0
74602,CORNISH,12568,G,Lightning,45.305,-115.42,ID,8/11/1994,10/31/1994,Aug,8/11/1994 18:00,10/31/1994 18:00,81,7/12/1994,1994,Jul,725788,71166.33941,99999,1983,2005,9,100,File Not Found,-1,-1,-1,-1,-1,-1,-1,-1,-1,-1,-1,-1,-1,-1,-1,-1
74603,BANTY,3549,F,Lightning,45.27666667,-115.44,ID,8/11/1994,10/31/1994,Aug,8/11/1994 18:00,10/31/1994 18:00,81,7/12/1994,1994,Jul,725788,67930.01734,99999,1983,2005,9,50,File Not Found,-1,-1,-1,-1,-1,-1,-1,-1,-1,-1,-1,-1,-1,-1,-1,-1
74604,PORPHYRY SOUTH,84677,G,Lightning,45.295,-115.4816667,ID,8/11/1994,10/31/1994,Aug,8/11/1994 18:00,10/31/1994 18:00,81,7/12/1994,1994,Jul,725788,66827.79369,99999,1983,2005,9,100,File Not Found,-1,-1,-1,-1,-1,-1,-1,-1,-1,-1,-1,-1,-1,-1,-1,-1
74640,COTTONWOOD,4670,F,Lightning,42.30888889,-114.47,ID,7/29/1994,7/31/1994,Jul,7/29/1994 14:40,7/31/1994 8:00,2,6/29/1994,1994,Jun,725866,19370.02802,99999,1973,2005,9,50,725866-99999-1994.gz,25.91222494,27.49121951,28.01326531,27.96666667,5.105651106,4.567156863,4.228571429,5.726666667,26.67076167,27.80392157,33.7755102,31.93333333,0,0,0,0
74741,DRY CANYON 2,10500,G,Lightning,41.61666667,-111.3566667,UT,8/4/1994,8/8/1994,Aug,8/4/1994 15:30,8/8/1994 19:30,4,7/5/1994,1994,Jul,724796,45028.73242,99999,1990,2005,15,100,724796-99999-1994.gz,29.07567568,31.0625,28.3,0,3.4,3.3625,2,0,25,26.66666667,0,0,0,0,0,0
74746,EDGAR CANYON,3640,F,Lightning,41.83333333,-111.4333333,UT,8/1/1994,8/11/1994,Aug,8/1/1994 10:00,8/11/1994 18:00,10,7/2/1994,1994,Jul,724796,35073.02073,99999,1990,2005,15,50,724796-99999-1994.gz,28.87333333,30.78,28.3,0,3.646666667,3.56,2,0,24.66666667,26,0,0,0,0,0,0
74770,SCOUT,3020,F,Campfire,34.41666667,-117.635,CA,6/25/1994,6/30/1994,Jun,6/25/1994 11:37,6/30/1994 18:00,5,5/26/1994,1994,May,723825,30808.01835,99999,1949,2020,16,50,File Not Found,-1,-1,-1,-1,-1,-1,-1,-1,-1,-1,-1,-1,-1,-1,-1,-1
74775,SHOOTING,3490.1,F,Miscellaneous,34.44333333,-118.08,CA,6/25/1994,6/29/1994,Jun,6/25/1994 15:57,6/29/1994 6:00,4,5/26/1994,1994,May,723820,20599.66804,23182,1977,2020,16,50,723820-23182-1994.gz,26.25740319,27.84285714,29.35566038,34.11666667,5.428018223,5.528571429,4.991509434,4.659322034,25.37585421,23.1875,18.71698113,17.51724138,0,0,0,0
74792,SECOND,5120,G,Miscellaneous,33.15833333,-116.8666667,CA,6/26/1994,7/16/1994,Jun,6/26/1994 13:50,7/16/1994 21:30,20,5/27/1994,1994,May,722907,37279.44511,99999,1978,1999,16,100,722907-99999-1994.gz,23.13457077,23.98472222,27.30392157,24.81399317,2.787470998,2.770833333,2.587254902,2.769624573,75,75,0,0,0,0,0,0
74834,JACK #1,28953,G,Lightning,41.635,-123.6383333,CA,7/22/1994,8/10/1994,Jul,7/22/1994 14:00,8/10/1994 18:00,19,6/22/1994,1994,Jun,992290,66154.69365,99999,1981,2008,15,100,992290-99999-1994.gz,27.52749288,27.69197708,27.56415094,27.66045455,4.598290598,3.481375358,3.364779874,5.040909091,0,0,0,0,0,0,0,0
74835,SPECIMEN,7015,G,Lightning,41.365,-123.15,CA,9/19/1994,10/12/1994,Sep,9/19/1994 9:00,10/12/1994 18:00,23,8/20/1994,1994,Aug,725957,68466.63373,24215,1975,1996,15,100,725957-24215-1994.gz,16.91551887,15.92403027,15.82784553,15.24518188,1.544433962,1.601892148,1.667682927,1.493231162,43.61886792,44.98675497,42.44512195,44.8045977,0,0,0,0
74867,BARKLEY,44683,G,Lightning,40.135,-121.6783333,CA,9/18/1994,10/10/1994,Sep,9/18/1994 17:24,10/10/1994 18:00,22,8/19/1994,1994,Aug,724973,39983.34493,93203,1973,1999,14,100,724973-99999-1994.gz,4.4,0,0,0,0,0,0,0,18,0,0,0,0,0,0,0
74986,DEVILS,12303,G,Miscellaneous,34.30166667,-117.1283333,CA,7/3/1994,7/9/1994,Jul,7/3/1994 13:33,7/9/1994 18:00,6,6/3/1994,1994,Jun,722866,24943.90557,23122,1984,1996,16,100,File Not Found,-1,-1,-1,-1,-1,-1,-1,-1,-1,-1,-1,-1,-1,-1,-1,-1
75018,PALM,20901,G,Lightning,33.63666667,-116.5083333,CA,7/1/1994,7/10/1994,Jul,7/1/1994 13:00,7/10/1994 18:00,9,6/1/1994,1994,Jun,747187,32429.36361,3104,1990,2005,16,100,747187-03104-1994.gz,31.96306569,33.41633238,35.87378049,33.46243902,2.673830409,2.559025788,2.345731707,3.05,32.7715959,32.23850575,33.1402439,30.85221675,0,0,0,0
75021,FAIRVIEW,6420,G,Debris Burning,33.85,-116.6833333,CA,6/27/1994,6/30/1994,Jun,6/27/1994 11:40,6/30/1994 18:00,3,5/28/1994,1994,May,722867,27807.9456,99999,1942,1999,16,100,722867-23156-1994.gz,24.25288889,24.26206897,30.90697674,33.56,3.635555556,3.615517241,3.76744186,4.005,38.75409836,37.03333333,24.79069767,29.75,0,0,0,0
75049,LUCAS #4,5179,G,Lightning,35.455,-118.7133333,CA,6/27/1994,7/2/1994,Jun,6/27/1994 12:51,7/2/1994 18:00,5,5/28/1994,1994,May,723840,31017.34218,23155,1942,2020,15,100,723840-23155-1994.gz,26.57771836,27.31362007,28.79323308,32.42526316,3.586607143,3.660215054,3.603759398,3.149473684,34.09464286,30.28315412,29.69924812,32.93684211,2.4,0,0,0
75125,BIG CREEK,5250,G,Miscellaneous,37.20833333,-119.295,CA,8/24/1994,9/2/1994,Aug,8/24/1994 12:02,9/2/1994 6:00,9,7/25/1994,1994,Jul,723890,60697.51707,93193,1973,2005,0,100,723890-93193-1994.gz,28.63111111,28.96083333,27.61071429,26.2787037,2.774305556,2.832777778,2.76547619,2.747222222,36.94166667,33.64722222,38.02380952,41.18981481,0,0,0,0
75161,COTTONWOOD,46800,G,Arson,39.54166667,-120.3166667,CA,8/16/1994,8/31/1994,Aug,8/16/1994 12:55,8/31/1994 18:00,15,7/17/1994,1994,Jul,725846,28976.84455,93201,1973,2020,0,100,725846-99999-1994.gz,25.13573668,24.83037975,25.51369863,22.69745223,4.529780564,5.178481013,5.882191781,4.778980892,22.56426332,21.63291139,23.49315068,19.14012739,0,0,0,0
75163,CRYSTAL,7310,G,Equipment Use,39.50166667,-120.0666667,CA,8/4/1994,8/15/1994,Aug,8/4/1994 13:23,8/15/1994 18:00,11,7/5/1994,1994,Jul,725846,20962.69695,99999,1973,2020,0,100,725846-99999-1994.gz,24.9918239,25.16855346,24.77837838,25.0034188,3.916037736,4.125786164,3.881081081,5.483760684,22.86163522,23.11320755,20.98648649,21.55555556,0,0,0,0
75227,JORDAN SPRINGS,5757.2,G,Lightning,43.87,-118.7566667,OR,8/27/1994,9/5/1994,Aug,8/27/1994 23:16,9/5/1994 18:00,9,7/28/1994,1994,Jul,726876,61248.9663,99999,1990,2018,9,100,File Not Found,-1,-1,-1,-1,-1,-1,-1,-1,-1,-1,-1,-1,-1,-1,-1,-1
75246,POWDER,5780,G,Lightning,44.12333333,-118.3083333,OR,8/28/1994,9/3/1994,Aug,8/28/1994 7:10,9/3/1994 18:00,6,7/29/1994,1994,Jul,726839,60871.09118,94196,1942,2010,15,100,726839-99999-1994.gz,23.96341463,22.91875,21.28,25.5,4.448780488,5.0375,4.535,4.6,34.2,34.38709677,36.05263158,25,0,0,0,0
75290,THUNDER,8900,G,Lightning,48.78166667,-119.9816667,WA,7/24/1994,8/30/1994,Jul,7/24/1994 16:11,8/30/1994 16:00,37,6/24/1994,1994,Jun,727890,49207.3681,94197,1988,2020,16,100,File Not Found,-1,-1,-1,-1,-1,-1,-1,-1,-1,-1,-1,-1,-1,-1,-1,-1
75312,WHITEFACE,4380,F,Lightning,48.665,-120.3766667,WA,8/4/1994,8/15/1994,Aug,8/4/1994 12:17,8/15/1994 18:00,11,7/5/1994,1994,Jul,727890,67271.24335,94197,1988,2020,16,50,File Not Found,-1,-1,-1,-1,-1,-1,-1,-1,-1,-1,-1,-1,-1,-1,-1,-1
75340,MENDENHALL,6998,G,Lightning,42.13666667,-123.725,OR,7/21/1994,8/18/1994,Jul,7/21/1994 20:20,8/18/1994 18:00,28,6/21/1994,1994,Jun,725985,46913.11707,99999,1973,2020,9,100,725985-24267-1994.gz,14.1284264,13.87244898,12.86956522,15.29714286,2.266497462,2.355102041,2.339130435,2.083571429,80.04591837,80.22680412,84.51111111,83.57971014,0,0,0,0
75367,BOUNDARY,11081,G,Lightning,45.03333333,-118.525,OR,8/10/1994,8/22/1994,Aug,8/10/1994 13:54,8/22/1994 18:00,12,7/11/1994,1994,Jul,726884,49738.75898,24148,1942,2020,9,100,726884-24148-1994.gz,22.40182073,22.86535211,21.24848485,21.3048951,2.959803922,3.627605634,4.001818182,3.883916084,36.92156863,34.66478873,37.93939394,34.73426573,0,0,0,0
75407,ALDER,5700,G,Lightning,45.69833333,-117.035,OR,8/28/1994,9/3/1994,Aug,8/28/1994 6:00,9/3/1994 18:00,6,7/29/1994,1994,Jul,726873,75911.91492,99999,1990,1995,15,100,726873-99999-1994.gz,21.06740331,19.76421053,17.8475,17.9,2.415469613,2.341052632,2.26,2.410344828,47.02762431,48.95789474,52.1,48.37931034,0,0,0,0
75417,FREEZEOUT,7449,G,Lightning,45.375,-116.73,OR,8/28/1994,9/6/1994,Aug,8/28/1994 6:23,9/6/1994 18:00,9,7/29/1994,1994,Jul,725788,73797.0332,99999,1983,2005,9,100,File Not Found,-1,-1,-1,-1,-1,-1,-1,-1,-1,-1,-1,-1,-1,-1,-1,-1
75418,TWIN LAKES,22330,G,Lightning,42.08666667,-117.0533333,OR,8/28/1994,9/29/1994,Aug,8/28/1994 7:02,9/29/1994 2:00,32,7/29/1994,1994,Jul,726875,87186.04424,94107,1977,2005,9,100,File Not Found,-1,-1,-1,-1,-1,-1,-1,-1,-1,-1,-1,-1,-1,-1,-1,-1
75419,GRANITE,7517,G,Lightning,45.29,-116.6483333,ID,8/28/1994,9/7/1994,Aug,8/28/1994 7:30,9/7/1994 18:00,10,7/29/1994,1994,Jul,725788,62525.33535,99999,1983,2005,9,100,File Not Found,-1,-1,-1,-1,-1,-1,-1,-1,-1,-1,-1,-1,-1,-1,-1,-1
75460,TYEE CREEK,140000,G,Lightning,47.83333333,-120.3333333,WA,7/24/1994,10/31/1994,Jul,7/24/1994 21:30,10/31/1994 6:00,99,6/24/1994,1994,Jun,727825,49215.47354,99999,1942,2010,15,100,727825-99999-1994.gz,23.5665272,26.58795518,27.68181818,24.36998578,4.808786611,4.286554622,3.786060606,4.260714286,33.95391061,29.33146067,30.01219512,34.67142857,11,0,0,1
75465,ROUND MTN,3241,F,Lightning,47.79,-120.805,WA,7/26/1994,8/8/1994,Jul,7/26/1994 20:30,8/8/1994 20:00,13,6/26/1994,1994,Jun,727825,62550.03482,99999,1942,2010,15,50,727825-99999-1994.gz,24.26262204,27.14565826,28.61939394,25.23112583,4.838214784,4.075630252,3.569090909,4.54180602,33.56284916,30.51685393,30.86585366,32.45819398,11,0,0,0
75473,HATCHERY CREEK,12060,G,Lightning,47.65166667,-120.765,WA,7/24/1994,10/31/1994,Jul,7/24/1994 19:00,10/31/1994 12:00,99,6/24/1994,1994,Jun,727825,50546.3244,99999,1942,2010,15,100,727825-99999-1994.gz,23.5665272,26.58795518,27.68181818,24.36998578,4.808786611,4.286554622,3.786060606,4.260714286,33.95391061,29.33146067,30.01219512,34.67142857,11,0,0,1
75483,RAT,29435,G,Smoking,47.54666667,-120.7433333,WA,7/29/1994,10/31/1994,Jul,7/29/1994 17:00,10/31/1994 12:00,94,6/29/1994,1994,Jun,727825,43636.22545,99999,1942,2010,15,100,727825-99999-1994.gz,25.00937063,27.46535211,28.74539877,22.94971429,4.767972028,4.010985915,3.976687117,4.115064562,32.07002801,30.89265537,28.66666667,37.19942611,0,0,0,1
75544,COPPER BUTTE,10580,G,Lightning,48.70444444,-118.4733333,WA,7/31/1994,8/19/1994,Jul,7/31/1994 13:56,8/19/1994 18:00,19,7/1/1994,1994,Jul,727873,46989.29781,99999,1973,2005,16,100,727873-99999-1994.gz,23.22068966,25.46034483,25.05555556,22.97111111,1.630172414,1.468965517,1.444444444,1.591111111,44.42241379,41.37931034,43.14814815,41.88888889,0,0,0,0
76170,FISH DAY,24600,G,Arson,34.88333333,-77.11666667,NC,5/21/1994,5/21/1994,May,5/21/1994 11:30,5/21/1994 17:30,0,4/21/1994,1994,Apr,723090,21438.95327,13754,1973,1999,16,100,723090-13754-1994.gz,19.22847222,19.05888889,18.68511905,0,3.880833333,3.784722222,4.526190476,0,54.69027778,54.59166667,56.54166667,0,0,0,0,0
77848,,4200,F,Miscellaneous,47.95,-95.5003,MN,4/18/1994,4/21/1994,Apr,4/18/1994 13:00,4/21/1994 17:00,3,3/19/1994,1994,Mar,727505,44715.78699,4929,1976,2004,15,50,727505-99999-1994.gz,1.266513057,3.525072046,6.689820359,7.420512821,2.678341014,2.754755043,2.714371257,4.320512821,50.10307692,47.52890173,47.12048193,39.70512821,0,0,0,0
77923,,11420,G,Arson,48.1333,-95.5003,MN,4/23/1994,4/23/1994,Apr,4/23/1994 14:00,4/23/1994 23:00,0,3/24/1994,1994,Mar,727555,51379.49499,94956,1979,2001,15,100,727555-99999-1994.gz,2.888652482,6.560230548,7.08625,0,4.746808511,4.761095101,4.669375,0,56.32765957,50.46974063,42.5375,0,0,0,0,0
78088,NIARADA,4268,F,Equipment Use,47.8274,-114.5579,MT,7/26/1994,8/1/1994,Jul,7/26/1994 16:00,8/1/1994 20:00,6,6/26/1994,1994,Jun,727790,57342.39221,24146,1973,2020,15,50,727790-24146-1994.gz,19.16749311,21.22900552,22.65892857,21.26024845,2.811707989,2.67679558,2.131547619,1.788819876,50.50344828,46.70718232,47.0297619,54.32075472,51,25,0,0
78095,MCDONALD,7494,G,Lightning,47.3541,-114.4635,MT,8/15/1994,8/19/1994,Aug,8/15/1994 10:45,8/19/1994 18:00,4,7/16/1994,1994,Jul,727795,73594.54812,99999,1942,2020,15,100,727795-99999-1994.gz,27.13951613,26.37846154,25.61666667,23.81304348,2.272580645,2.270769231,1.975,2.708695652,11,11,11,0,0,0,0,0
78129,LECLAIRE,33490,G,Structure,44.8665,-121.2845,OR,7/25/1994,7/29/1994,Jul,7/25/1994 17:21,7/29/1994 18:00,4,6/25/1994,1994,Jun,726920,68818.44392,24230,1980,2020,15,100,File Not Found,-1,-1,-1,-1,-1,-1,-1,-1,-1,-1,-1,-1,-1,-1,-1,-1
78206,YEDLICK,3237,F,Lightning,46.2907,-121.2395,WA,7/24/1994,8/15/1994,Jul,7/24/1994 16:00,8/15/1994 17:00,22,6/24/1994,1994,Jun,690330,72960.29281,99999,1991,2008,9,50,690330-99999-1994.gz,0,0,0,0,0,0,0,0,0,0,0,0,0,0,0,0
78211,LAKEBEDS,5600,G,Lightning,46.0512,-120.8295,WA,7/24/1994,8/7/1994,Jul,7/24/1994 18:08,8/7/1994 23:00,14,6/24/1994,1994,Jun,726988,54691.39934,24219,1948,2005,9,100,726988-24219-1994.gz,25.80343434,29.10853659,31.24956522,27.32477876,6.178701826,5.91300813,4.997391304,6.734513274,43.14198783,42.0203252,40.39130435,50.30222222,0,0,0,0
78422,,3554,F,Lightning,45.25,-108.534,MT,8/10/1994,8/15/1994,Aug,8/10/1994 14:43,8/15/1994 14:45,5,7/11/1994,1994,Jul,726667,88909.8094,99999,1973,2020,9,50,File Not Found,-1,-1,-1,-1,-1,-1,-1,-1,-1,-1,-1,-1,-1,-1,-1,-1
78571,BABY DEAN,60300,G,Arson,45.45,-106.8839,MT,9/8/1994,9/14/1994,Sep,9/8/1994 22:00,9/14/1994 14:00,6,8/9/1994,1994,Aug,726660,75977.91592,24029,1974,1998,9,100,726660-24029-1994.gz,20.32517385,17.95083333,15.81904762,19.925,2.941827768,3.275789474,3.030827068,2.724561404,42.03220036,43.74377224,46.34108527,39.90350877,10.2,3.6,0.6,4.3
78666,BLACK RIDG,7271,G,Lightning,37.1167,-107.9642,CO,7/13/1994,8/4/1994,Jul,7/13/1994 15:45,8/4/1994 18:00,22,6/13/1994,1994,Jun,724625,18328.90378,99999,1977,2005,0,100,724625-99999-1994.gz,22.41885714,22.77826087,21.72195122,22.36530612,3.111494253,2.963043478,3.080487805,2.74829932,29.04117647,24.13636364,24.2972973,39.0979021,0,0,0,0
79317,TOWERS-1,10250,G,Lightning,35.9869,-113.8727,AZ,7/1/1994,7/5/1994,Jul,7/1/1994 16:50,7/5/1994 19:00,4,6/1/1994,1994,Jun,723700,81064.99766,99999,1984,2005,15,100,723700-99999-1994.gz,28.3900191,30.09651929,32.89056225,31.00457746,4.423591213,4.070084666,3.53935743,5.192253521,17.54202483,19.02163688,14.89156627,16.67957746,0,0,0,0
79379,TAL S 27,6520,G,Lightning,64.7328,-152.5691,AK,6/6/1994,7/15/1994,Jun,6/6/1994 16:50,7/15/1994 17:20,39,5/7/1994,1994,May,701780,53921.18224,26529,1973,2005,0,100,701780-26529-1994.gz,13.0883905,14.15393939,13.95316456,15.74441261,3.849340369,3.257575758,2.803797468,3.266189112,43.01851852,41.45731707,41.40506329,62.80515759,0,0,0,0
79385,BTT S 49,8240.2,G,Lightning,66.0828,-151.536,AK,6/8/1994,7/15/1994,Jun,6/8/1994 9:11,7/15/1994 15:44,37,5/9/1994,1994,May,701748,90909.92774,99999,1945,2020,0,100,701748-99999-1994.gz,10.23333333,10.31111111,14.375,12.30769231,2.44,0.722222222,0.5,2.138461538,0,0,0,0,0,0,0,0
79387,DCK SW 50,12000,G,Lightning,66.2161,-157.6193,AK,6/8/1994,6/28/1994,Jun,6/8/1994 12:14,6/28/1994 18:00,20,5/9/1994,1994,May,703655,72963.49045,99999,1973,2001,0,100,File Not Found,-1,-1,-1,-1,-1,-1,-1,-1,-1,-1,-1,-1,-1,-1,-1,-1
79388,BTT NE 26,6219,G,Lightning,67.1329,-150.5527,AK,6/8/1994,7/21/1994,Jun,6/8/1994 13:15,7/21/1994 18:00,43,5/9/1994,1994,May,701748,35484.87499,99999,1945,2020,0,100,701748-99999-1994.gz,10.23333333,10.31111111,14.375,12.30769231,2.44,0.722222222,0.5,2.138461538,0,0,0,0,0,0,0,0
79397,432225,14000,G,Lightning,65.8328,-155.6526,AK,6/9/1994,6/28/1994,Jun,6/9/1994 14:34,6/28/1994 18:00,19,5/10/1994,1994,May,702225,36596.00217,99999,1942,2005,0,100,702225-99999-1994.gz,10.97708628,10.54017094,12.98159509,12.66325,2.118387553,1.850997151,1.552147239,1.667,46.94625177,49.29059829,46.69325153,60.5275,0,0,0,0
79401,GAL SW 94,5650,G,Lightning,63.3327,-158.4191,AK,6/9/1994,7/12/1994,Jun,6/9/1994 17:50,7/12/1994 15:22,33,5/10/1994,1994,May,702006,111972.9675,26502,1940,2020,0,100,File Not Found,-1,-1,-1,-1,-1,-1,-1,-1,-1,-1,-1,-1,-1,-1,-1,-1
79404,TAL NE 33,16300,G,Lightning,65.6162,-151.3692,AK,6/10/1994,7/18/1994,Jun,6/10/1994 15:40,7/18/1994 18:00,38,5/11/1994,1994,May,701780,59964.18443,26529,1973,2005,0,100,701780-26529-1994.gz,14.11643836,14.46763006,16.09871795,15.58252149,3.69369863,3.102890173,2.547435897,3.427507163,44.0989011,49.41040462,55.69230769,62.7765043,0,0,0,0
79435,404274,3440,F,Lightning,61.5827,-155.419,AK,6/13/1994,7/22/1994,Jun,6/13/1994 16:15,7/22/1994 13:30,39,5/14/1994,1994,May,702350,54501.09665,26534,1973,2020,0,50,702350-99999-1994.gz,9.286582694,10.76202532,11.96302326,11.13,2.609200438,2.363185654,2.11255814,2.682767905,59.48348018,61.26652452,60.7952381,72.93512919,0,0,0,0
79436,404275,43329.7,G,Lightning,62.7827,-155.419,AK,6/13/1994,9/22/1994,Jun,6/13/1994 16:38,9/22/1994 10:20,101,5/14/1994,1994,May,702315,30973.38842,26536,1973,2020,0,100,702315-99999-1994.gz,11.87822319,12.92904255,14.68068966,12.54966755,2.035737527,1.707036247,1.677829099,2.775233023,55.25041277,57.81997805,59.64285714,68.73044097,0,0,0,0
79449,431299,3710,F,Lightning,65.1995,-150.6192,AK,6/13/1994,7/21/1994,Jun,6/13/1994 23:13,7/21/1994 18:00,38,5/14/1994,1994,May,701793,22290.12898,99999,1973,2020,0,50,701793-99999-1994.gz,15.31323529,16.17692308,18.51875,15.92352941,2.123529412,1.935384615,1.9375,2.030882353,51.22058824,57.06153846,61.90625,66.95454545,0,0,0,0
79450,GAL NE 38,3680,F,Lightning,65.0327,-155.5192,AK,6/14/1994,7/7/1994,Jun,6/14/1994 4:10,7/7/1994 17:17,23,5/15/1994,1994,May,702627,34162.38353,26561,1941,2005,0,50,File Not Found,-1,-1,-1,-1,-1,-1,-1,-1,-1,-1,-1,-1,-1,-1,-1,-1
79453,404307,4130,F,Lightning,61.716,-155.5523,AK,6/14/1994,7/8/1994,Jun,6/14/1994 12:35,7/8/1994 16:20,24,5/15/1994,1994,May,702350,68664.07349,26534,1973,2020,0,50,702350-99999-1994.gz,9.52136612,11.02751323,12.41682243,10.84585007,2.606284153,2.075026455,1.933878505,2.627680965,59.92248488,63.02141328,63.17745803,72.30061771,0,0,0,0
79457,412312,22420,G,Lightning,63.8329,-145.2856,AK,6/14/1994,10/4/1994,Jun,6/14/1994 16:31,10/4/1994 18:00,112,5/15/1994,1994,May,702675,89803.59836,99999,1944,2005,0,100,702675-99999-1994.gz,9.587619048,10.38850575,12.75405405,12.22160804,2.619047619,2.683908046,3.040540541,2.312121212,65.61165049,65.31764706,59.30555556,66.41530055,0,0,0,0
79467,413330,8045,G,Lightning,62.5663,-142.3355,AK,6/15/1994,9/9/1994,Jun,6/15/1994 13:58,9/9/1994 18:00,86,5/16/1994,1994,May,702915,85830.29923,99999,1945,2020,0,100,702915-99999-1994.gz,9.99022082,12.14895105,13.7375,14.20166113,3.400632911,3.525874126,3.885714286,3.424916944,58.08064516,54.69230769,52.07142857,59.14285714,0,0,0,0
79471,FYU W 35,13800,G,Lightning,66.5996,-146.7693,AK,7/1/1994,9/13/1994,Jul,7/1/1994 13:48,9/13/1994 16:00,74,6/1/1994,1994,Jun,701940,66747.44098,26413,1943,2020,0,100,701940-26413-1994.gz,14.31172214,12.46524217,12.79281437,17.91255289,2.576700434,2.977492877,2.190419162,2.198166432,53.54124457,59.04843305,59.09580838,57.59520451,0,0,0,0
79502,FYU E 76,30600,G,Lightning,66.5497,-142.0526,AK,7/29/1994,9/13/1994,Jul,7/29/1994 16:20,9/13/1994 14:00,46,6/29/1994,1994,Jun,702674,120934.6043,99999,1983,2005,0,100,702674-99999-1994.gz,20.41029412,21.02272727,20.85806452,20.2810219,2.400740741,2.093939394,1.9,2.485294118,52.51851852,56.12121212,55.4516129,57.22794118,0,0,0,0
79509,431535,4250,F,Lightning,65.2663,-146.0358,AK,8/6/1994,9/1/1994,Aug,8/6/1994 15:25,9/1/1994 16:15,26,7/7/1994,1994,Jul,701970,68096.80596,99999,1973,2020,0,50,File Not Found,-1,-1,-1,-1,-1,-1,-1,-1,-1,-1,-1,-1,-1,-1,-1,-1
79514,413547,9050,G,Lightning,63.1997,-141.5355,AK,8/7/1994,9/9/1994,Aug,8/7/1994 19:48,9/9/1994 18:00,33,7/8/1994,1994,Jul,702915,135619.4505,26486,1945,2005,0,100,702915-99999-1994.gz,16.97418033,17.79924242,19.80923077,14.04747899,2.877868852,2.662878788,2.573846154,3.324255319,58.49180328,60.95454545,58.12307692,65.36595745,0,0,0,0
79578,COYOTE,3887,F,Lightning,35.6833,-114.2175,AZ,6/27/1994,6/30/1994,Jun,6/27/1994 18:35,6/30/1994 18:00,3,5/28/1994,1994,May,723700,52967.71983,99999,1984,2005,15,50,723700-99999-1994.gz,27.44617591,28.63282443,29.97943548,32.97061611,4.639674952,4.985496183,3.86733871,2.627014218,18.4125239,19.64694656,21.75806452,14.8957346,0,0,0,0
79579,PERKINS,21276,G,Lightning,35.5667,-114.4675,AZ,6/27/1994,6/30/1994,Jun,6/27/1994 18:35,6/30/1994 18:00,3,5/28/1994,1994,May,723700,58092.41764,99999,1984,2005,15,100,723700-99999-1994.gz,27.44617591,28.63282443,29.97943548,32.97061611,4.639674952,4.985496183,3.86733871,2.627014218,18.4125239,19.64694656,21.75806452,14.8957346,0,0,0,0
79600,WARM,5000,G,Lightning,34.9167,-114.2508,AZ,8/13/1994,8/19/1994,Aug,8/13/1994 6:30,8/19/1994 18:00,6,7/14/1994,1994,Jul,723700,46845.9569,99999,1984,2005,16,100,723700-99999-1994.gz,29.66339772,30.26181631,29.63816425,31.6,3.903815659,3.974716202,3.710628019,3.6,27.50099108,26.32920537,32.49275362,32,0,0,0,0
79645,SWISS HELM,3297,F,Lightning,31.6668,-109.5173,AZ,7/2/1994,7/10/1994,Jul,7/2/1994 17:45,7/10/1994 18:00,8,6/2/1994,1994,Jun,722720,24635.54674,93026,1947,2005,12,50,File Not Found,-1,-1,-1,-1,-1,-1,-1,-1,-1,-1,-1,-1,-1,-1,-1,-1
79675,SODA,3380,F,Equipment Use,35.2166,-119.8843,CA,5/23/1994,5/26/1994,May,5/23/1994 11:33,5/26/1994 18:00,3,4/23/1994,1994,Apr,722897,68184.1217,99999,1950,2015,15,50,722897-99999-1994.gz,13.59348592,14.24463668,13.79703704,14.66610169,4.584219858,4.470731707,4.325925926,3.059322034,75.30925926,75.38043478,73.50746269,75.32727273,0,0,0,0
79679,BRECKENRDG,3100,F,Arson,35.35,-118.9009,CA,5/30/1994,5/30/1994,May,5/30/1994 17:41,5/30/1994 22:00,0,4/30/1994,1994,Apr,723840,16742.8184,23155,1942,2020,15,50,723840-23155-1994.gz,20.98957265,21.61170213,25.44393939,0,3.394691781,3.588652482,3.506060606,0,49.83219178,46.32978723,36.04545455,0,14.4,13.3,0,0
79718,ALISO,3429,F,Smoking,34.95,-119.7343,CA,7/30/1994,8/1/1994,Jul,7/30/1994 11:25,8/1/1994 18:00,2,6/30/1994,1994,Jun,722895,74028.95014,99999,1978,2005,16,50,722895-99999-1994.gz,14.83594406,15.50642458,15.31927711,15.36458333,3.425734266,3.446089385,3.710843373,3.797916667,79.05594406,78.31564246,78.31325301,77.52083333,0,0,0,0
79724,HWY 41,48851,G,Arson,35.4333,-120.7343,CA,8/14/1994,8/18/1994,Aug,8/14/1994 15:57,8/18/1994 1:00,4,7/15/1994,1994,Jul,722897,23372.36414,93206,1977,1996,15,100,722897-99999-1994.gz,18.01708633,18.87330961,20.08496241,23.49295775,4.25045045,4.090357143,3.388636364,2.785714286,68.46851852,64.80442804,61.1171875,51.25714286,0,0,0,0
79767,FORT PIUTE,9497,G,Lightning,34.5333,-115.2008,CA,6/28/1994,7/3/1994,Jun,6/28/1994 16:00,7/3/1994 18:00,5,5/29/1994,1994,May,690150,92516.97605,93121,1990,2020,16,100,690150-93121-1994.gz,31.17827648,31.80117647,34.82125,37.11465517,3.869120287,4.179705882,3.44125,3.513793103,17.58992806,17.04424779,15.25157233,18.31034483,0,0,0,0
79960,TWO ROAD,3625,F,Lightning,39.2166,-108.9007,CO,7/12/1994,7/16/1994,Jul,7/12/1994 15:50,7/16/1994 18:00,4,6/12/1994,1994,Jun,724776,90914.68336,93075,1986,2005,0,50,724776-99999-1994.gz,26.08333333,24.96666667,23.725,29.95,3.233333333,2.383333333,2.05,8.95,31.08333333,36.83333333,38.75,22,0,0,0,0
80002,WAKE,3848,F,Lightning,38.85,-107.6839,CO,7/4/1994,7/8/1994,Jul,7/4/1994 13:29,7/8/1994 18:00,4,6/4/1994,1994,Jun,724765,41239.40474,99999,1973,2020,0,50,724765-99999-1994.gz,23.69308357,24.68504399,26.36946108,23.47525773,4.029971182,3.497067449,3.605988024,4.231958763,28.90489914,39.6686217,31.99401198,28.46391753,0,0,0,0
80063,WEST SPR.,3430,F,Debris Burning,42.6832,-116.5343,ID,7/22/1994,7/24/1994,Jul,7/22/1994 15:05,7/24/1994 13:00,2,6/22/1994,1994,Jun,726815,68072.32224,24106,1973,2020,4,50,726815-24106-1994.gz,24.73402778,26.11416667,27.33869048,29.60625,4.694166667,4.791388889,4.551785714,3.1625,27.84679666,25.72222222,23.36309524,29,0,0,0,0.3
80070,DEVILS CR.,3308,F,Lightning,42.10563,-115.13591,ID,7/29/1994,7/31/1994,Jul,7/29/1994 13:54,7/31/1994 3:00,2,6/29/1994,1994,Jun,725866,68236.69196,99999,1973,2005,9,50,725866-99999-1994.gz,25.91222494,27.49121951,28.01326531,27.96666667,5.105651106,4.567156863,4.228571429,5.726666667,26.67076167,27.80392157,33.7755102,31.93333333,0,0,0,0
80096,CROWSNEST,8045,G,Debris Burning,42.52236,-115.20268,ID,9/2/1994,9/3/1994,Sep,9/2/1994 14:46,9/3/1994 14:00,1,8/3/1994,1994,Aug,725860,56528.13444,99999,1973,2005,4,100,File Not Found,-1,-1,-1,-1,-1,-1,-1,-1,-1,-1,-1,-1,-1,-1,-1,-1
80117,OTA 9,5111,G,Lightning,43.24833,-116.07285,ID,8/20/1994,8/20/1994,Aug,8/20/1994 12:00,8/20/1994 18:00,0,7/21/1994,1994,Jul,726815,27674.14298,24106,1973,2020,9,100,726815-24106-1994.gz,27.75638889,26.32527778,26.09821429,0,4.207222222,4.353055556,4.310119048,0,28.93741307,27.55277778,27.19642857,0,0.6,0,0,0
80130,POINT WELL,21470,G,Campfire,42.8166,-113.4342,ID,6/30/1994,7/3/1994,Jun,6/30/1994 21:05,7/3/1994 8:00,3,5/31/1994,1994,May,725869,55824.00893,99999,1973,2005,4,100,725869-94186-1994.gz,16.16693548,16.74444444,17.77241379,21.46666667,3.582113821,3.140322581,3.171428571,4.126666667,58.62601626,54.82258065,53.42857143,45.06666667,0,0,0,0
80140,HAWLEY 2,13940,G,Lightning,42.7369,-113.4014,ID,7/27/1994,7/28/1994,Jul,7/27/1994 13:18,7/28/1994 19:00,1,6/27/1994,1994,Jun,725869,46680.80569,99999,1973,2005,4,100,725869-94186-1994.gz,20.39191176,22.00588235,21.59705882,21.74,3.391176471,3.542647059,2.585294118,3.18,51.25,52.27941176,56.88235294,53.8,0,0,0,0
80143,ELEVATOR,31395,G,Lightning,42.0427,-112.4369,ID,7/27/1994,8/8/1994,Jul,7/27/1994 15:10,8/8/1994 18:00,12,6/27/1994,1994,Jun,725786,18014.70721,99999,1943,2020,9,100,725786-24151-1994.gz,24.72204082,26.02748092,26.48983051,26.8,2.061065574,1.923664122,1.522033898,1.819791667,32.5,31.10769231,34.88135593,36.47368421,0,0,0,0
80180,BUTTE CITY,21433,G,Equipment Use,43.603,-113.15,ID,7/1/1994,7/2/1994,Jul,7/1/1994 15:38,7/2/1994 22:00,1,6/1/1994,1994,Jun,725865,93630.26597,99999,1973,2007,9,100,725865-99999-1994.gz,17.71843818,19.97112971,20.33130435,22.85,3.578820961,3.882700422,3.940869565,3.7,34.1441048,30.44303797,29.28695652,28.16666667,0,0,0,0
80184,BUCKSKIN,5946,G,Debris Burning,43.0407,-112.2925,ID,7/5/1994,7/9/1994,Jul,7/5/1994 15:32,7/9/1994 20:00,4,6/5/1994,1994,Jun,725868,73593.04679,99999,1973,2005,9,100,725868-99999-1994.gz,18.97083333,21.63232323,22.3212766,15.36666667,5.4109375,5.018181818,4.904255319,4.79,40.57591623,36.27272727,32,53.43333333,0,0,0,0
80343,HALLELUJAH,12585,G,Miscellaneous,39.8332,-120.051,NV,7/14/1994,7/17/1994,Jul,7/14/1994 15:08,7/17/1994 18:00,3,6/14/1994,1994,Jun,724880,45613.31334,23185,1942,2020,0,100,724880-23185-1994.gz,22.91291667,24.65083333,25.83035714,26.9375,4.044583333,3.923888889,3.388095238,3.233333333,24.69027778,25.58333333,25.68452381,27.34722222,0,0,0,0
80348,HOLBROOK,6469,G,Arson,38.7499,-119.5677,NV,8/8/1994,8/11/1994,Aug,8/8/1994 9:54,8/11/1994 18:00,3,7/9/1994,1994,Jul,725847,40347.92939,99999,1977,2020,0,100,725847-99999-1994.gz,23.72386059,23.07287234,22.14505495,23.07777778,3.513136729,3.54893617,3.731868132,5.355555556,29.22624434,28.14444444,26.42168675,26.47058824,0,0,0,0
80354,LONE MTN,11188,G,Lightning,41.1499,-115.9342,NV,7/16/1994,7/20/1994,Jul,7/16/1994 14:30,7/20/1994 18:00,4,6/16/1994,1994,Jun,725825,37673.50153,24121,1942,2020,15,100,725825-24121-1994.gz,20.07275335,20.3121673,22.14541985,22.85238095,2.777246654,2.833269962,2.441603053,2.242261905,24.6290631,24.45627376,21.17175573,24.875,0,0,0,0
80356,MAHOGANY,8941,G,Lightning,41.4166,-116.6009,NV,7/17/1994,7/21/1994,Jul,7/17/1994 13:15,7/21/1994 21:00,4,6/17/1994,1994,Jun,725827,71069.18186,94190,1973,2000,15,100,725827-99999-1994.gz,20.54020619,19.69038462,20.91818182,20.24166667,3.426804124,3.226923077,3.090909091,2.833333333,21.45360825,24.07692308,20.13636364,28.25,0,0,0,0
80360,GOOSE CRK,16000,G,Lightning,41.8999,-114.2675,NV,7/23/1994,7/28/1994,Jul,7/23/1994 14:01,7/28/1994 18:00,5,6/23/1994,1994,Jun,725866,67170.52531,99999,1973,2005,15,100,725866-99999-1994.gz,25.2745679,26.89655172,27.83829787,27.42318841,5.253884712,5.046039604,4.951612903,4.117391304,24.11779449,21.52970297,22.10752688,37.02898551,0,0,0,0
80362,RAIN,9654,G,Equipment Use,40.6666,-116.0509,NV,7/24/1994,7/26/1994,Jul,7/24/1994 13:08,7/26/1994 18:00,2,6/24/1994,1994,Jun,725825,28539.04948,24121,1942,2020,15,100,725825-24121-1994.gz,21.17972626,22.77073955,23.05880597,24.28082192,2.648160821,2.302090032,2.140895522,2.657534247,25.26860565,24.88102894,28.07761194,29.34246575,0,0,0,0
80370,WOODHILLS,3353,F,Lightning,40.9999,-114.8009,NV,8/5/1994,8/9/1994,Aug,8/5/1994 13:21,8/9/1994 18:00,4,7/6/1994,1994,Jul,725810,71541.96956,24193,1973,2020,15,50,725810-24193-1994.gz,27.03190883,27.903125,27.2863354,29.615625,3.188873039,2.948717949,2.97515528,2.907291667,21.30527817,26.16239316,29.45341615,16.1875,0,0,0,0
80429,RATTLESNAK,5700,G,Lightning,36.2167,-114.2175,NV,6/28/1994,6/30/1994,Jun,6/28/1994 7:00,6/30/1994 18:00,2,5/29/1994,1994,May,722096,86662.11875,53127,1986,2005,0,100,File Not Found,-1,-1,-1,-1,-1,-1,-1,-1,-1,-1,-1,-1,-1,-1,-1,-1
80432,GREGERSON,43000,G,Lightning,37.25,-114.8008,NV,7/1/1994,7/7/1994,Jul,7/1/1994 10:52,7/7/1994 18:00,6,6/1/1994,1994,Jun,690170,104860.244,99999,1980,2008,0,100,690170-99999-1994.gz,28.93089431,31.16333333,32.821875,29.36470588,2.503305785,2.851666667,2.35625,5.276470588,21.15702479,20.68333333,17.0625,21.70588235,0,0,0,0
80486,MOORE,24175,G,Lightning,41.2999,-117.746,NV,7/31/1994,8/2/1994,Jul,7/31/1994 12:51,8/2/1994 18:00,2,7/1/1994,1994,Jul,725830,44495.01266,24128,1979,2004,15,100,725830-24128-1994.gz,26.16713483,27.85142045,27.90952381,25.96458333,3.508888889,3.368,2.877142857,2.94,19.05555556,20.91555556,19.18095238,23.53333333,0,0,0,0
80489,PORPHYRY,6125,G,Debris Burning,41.0966,-117.401,NV,8/29/1994,8/31/1994,Aug,8/29/1994 14:36,8/31/1994 18:00,2,7/30/1994,1994,Jul,725830,40492.50007,24128,1979,2004,15,100,725830-24128-1994.gz,23.8759388,22.40388889,21.33571429,20.48125,3.160666667,3.244888889,3.133333333,3.856666667,19.18666667,17.31555556,18.81904762,19.63333333,1.5,0,0,0
80528,OSCURA,10000,G,Lightning,33.8834,-106.0672,NM,6/11/1994,6/13/1994,Jun,6/11/1994 19:21,6/13/1994 18:00,2,5/12/1994,1994,May,747320,114656.0788,99999,1948,1999,16,100,747320-99999-1994.gz,23.53402778,25.88777778,27.23452381,30.54166667,4.29875,3.833611111,3.666666667,6.483333333,35.58472222,28.05555556,24.85119048,18.33333333,5,0,0,0
80542,ORGAN,13804,G,Lightning,32.2834,-107.1672,NM,6/27/1994,7/15/1994,Jun,6/27/1994 19:32,7/15/1994 20:00,18,5/28/1994,1994,May,722690,65357.19788,99999,1942,2020,12,100,722690-99999-1994.gz,30.89197861,31.36947368,31.24065934,31.90113636,2.574064171,2.490526316,2.068131868,2.479545455,23.5802139,24.71578947,26.78021978,21.65530303,0,0,0,0
80544,HAT,9000,G,Lightning,32.0668,-105.9172,NM,6/29/1994,7/18/1994,Jun,6/29/1994 9:13,7/18/1994 12:00,19,5/30/1994,1994,May,722690,63826.94596,99999,1942,2020,12,100,722690-99999-1994.gz,31.26979167,31.95656566,33.43369565,31.42230483,2.576822917,2.526767677,2.377173913,2.481412639,23.08333333,23.53030303,19.97826087,23.50929368,0,0,0,0
80548,LOVELACE,5200,G,Lightning,33.9334,-105.9672,NM,6/30/1994,7/9/1994,Jun,6/30/1994 13:00,7/9/1994 12:00,9,5/31/1994,1994,May,747320,120794.9806,99999,1948,1999,16,100,747320-99999-1994.gz,28.60777778,29.51222222,31.6172619,30.83888889,4.220555556,4.057222222,3.898809524,4.400925926,23.21527778,21.36388889,16.79761905,16.73611111,0,0,0,0
